OBJECTID,FIRE_ID,ASMNT_TYPE,PRE_ID,POST_ID,NODATA_THRESHOLD,LOW_THRESHOLD,MODERATE_THRESHOLD,HIGH_THRESHOLD,LATITUDE,LONGITUDE,FIRE_TYPE,FIRE_NAME,GREENNESS_THRESHOLD,IG_DATE,ACRES
165,OR4515911997920130510,Initial,70440292013130,80440292013200,-970,130,9999,9999,45.169,-119.968,Wildfire,121,-150,1368144000000,1158
171,UT3976811230220130815,Extended,50380322011203,80380322014200,-970,64,200,380,39.843,-112.311,Wildfire,222,-150,1376524800000,1657
194,MT4712010805220130423,Initial,50370272011116,70370272013100,-970,68,242,458,47.182,-108.235,Prescribed Fire,1 TIN CAN HILL UNIT G RX NW LP-2,-150,1366675200000,1761
261,FL2545608036420130403,Initial (SS),NULL,80150422013100,0,530,-9999,-9999,25.455,-80.363,Wildfire,117 328 FFS,0,1364947200000,999
276,NV3961811852320130319,Initial (SS),NULL,70420322013100,0,100,-9999,-9999,39.643,-118.519,Prescribed Fire,13-NV-STILLWATER-WEST MARSH MILLENS BURN,0,1363651200000,1419
371,WA4801012024820130704,Initial (SS),NULL,70450272013200,0,200,-9999,-9999,48.005,-120.223,Wildfire,25 MILE,0,1372896000000,2136
478,AK6904616156420130620,Initial,50820112010236,80810112013200,-970,-7,9999,9999,69.041,-161.578,Wildfire,ARCHIMEDES,-150,1371686400000,1004
524,ID4299511589420130808,Initial,80410302013213,80410302013200,-970,8,9999,9999,43.01,-115.896,Wildfire,AIR,-150,1375920000000,3360
555,WY4434311031120130814,Extended,50380292011187,70380292014200,-970,1,197,419,44.352,-110.301,Wildfire,ALDER,-150,1376438400000,3261
603,WY4458611055120130814,Extended,80380292013224,70380292014200,-970,9,247,505,44.592,-110.485,Wildfire,ALUM,-150,1376438400000,7084
611,CA3911912064620130810,Extended,80430332013179,80430332014200,-970,70,294,550,39.136,-120.588,Wildfire,AMERICAN,-150,1376092800000,27938
679,UT3858711284620130628,Initial,80380332013176,70380332013200,-970,4,9999,9999,38.582,-112.841,Wildfire,ANTELOPE,-150,1372377600000,5515
732,CA3727911931820130722,Extended,80420342013188,80420342014200,-970,80,287,530,37.294,-119.263,Wildfire,ASPEN,-150,1374451200000,23564
797,AK6905015615020130620,Initial (SS),NULL,80770112013200,0,457,-9999,-9999,69.054,-156.152,Wildfire,AWUNA RIVER 1,0,1371686400000,1135
802,WA4833111962320130715,Initial (SS),NULL,70450262013200,0,60,-9999,-9999,48.32,-119.648,Wildfire,B and O,0,1373846400000,1713
849,ID4626611489220130714,Extended,80410282013181,80410282014200,-970,28,216,430,46.255,-114.897,Wildfire,BAILEY,-150,1373760000000,2102
1013,MS3255008966620130317,Initial,50220372011075,70220372013100,-970,30,9999,9999,32.545,-89.67,Prescribed Fire,BIEN 1-4,-150,1363478400000,1888
1014,MS3237708968320130529,Initial (SS),NULL,80220382013100,0,696,-9999,-9999,32.415,-89.664,Prescribed Fire,BIEN 17-31-34,0,1369785600000,1162
1016,MS3243708954020130520,Initial,50220382011155,80220382013100,-970,-1,9999,9999,32.435,-89.531,Prescribed Fire,BIEN 23-24-27-28,-150,1369008000000,711
1018,MS3238308956620130519,Initial,50220382011155,80220382013100,-970,-1,9999,9999,32.388,-89.538,Prescribed Fire,BIEN 42-46 55,-150,1368921600000,2215
1079,AK6374315115120130621,Extended,80710152013167,80710152014200,-970,50,205,400,63.725,-151.151,Wildfire,BEAR CREEK,-150,1371772800000,3743
1147,AZ3596311382420130701,Initial,80380352013176,80380352013200,-970,50,150,9999,35.957,-113.875,Wildfire,BEAVER,-150,1372636800000,6751
1155,ID4345711455020130807,Initial,50400302011233,80400302013200,-970,110,309,550,43.603,-114.507,Wildfire,BEAVER CREEK,-150,1375833600000,111286
1160,TN3526608411420130409,Initial (SS),NULL,70190362013100,0,490,271,75,35.267,-84.115,Prescribed Fire,BEAVER DAM,0,1365465600000,4336
1167,AK6393915220320130622,Extended,80710152013167,80710152014200,-970,75,376,700,64.002,-152.001,Wildfire,BEAVER LOG LAKES,-150,1371859200000,62239
1193,AZ3310111008020130530,Initial,80350372013139,80350372013200,-970,50,350,9999,33.113,-110.077,Wildfire,BEETOWN,-150,1369872000000,1225
1291,AK6798314405020130715,Initial,50690122010241,80690122013200,-970,40,309,600,67.999,-144.036,Wildfire,BIG FISH LAKE,-150,1373846400000,1539
1294,WY4486210829520130412,Initial,50370292011132,80370292013200,-970,70,9999,9999,44.869,-108.272,Wildfire,BIG FORK,-150,1365724800000,1090
1299,OK3479809517320130308,Initial (SS),NULL,70260362013100,0,150,-9999,-9999,34.783,-95.183,Wildfire,BIG HIGH TOP,0,1362700800000,1240
1324,AZ3300611018420130514,Initial,80350372013123,80350372013100,-970,50,260,9999,33.025,-110.263,Wildfire,BLACKROCK,-150,1368489600000,1627
1401,AK6376614169520130627,Extended,50650152009162,70650152014200,-970,50,205,400,63.778,-141.716,Wildfire,BIG TIMBER CREEK,-150,1372291200000,8745
1411,OR4261412376020130726,Extended,80460302013184,80460302014200,-970,39,307,605,42.633,-123.736,Wildfire,BIG WINDY COMPLEX,-150,1374796800000,28911
1430,AK6385314372720130622,Initial,50660152011239,80650152013200,-970,1,237,493,63.863,-143.79,Wildfire,BILLY CREEK,-150,1371859200000,16385
1444,AK6537814429420130703,Initial (SS),NULL,70670142013300,0,300,150,-50,65.429,-144.404,Wildfire,BIRCH CREEK,0,1372809600000,24916
1467,NV3887811956120130704,Extended,80430332013179,80430332014200,-970,70,240,450,38.933,-119.483,Wildfire,BISON,-150,1372896000000,23611
1474,AK6317414196120130531,Initial,50640162008185,80640162013200,-970,90,355,650,63.147,-141.972,Wildfire,BITTER CREEK,-150,1369958400000,1947
1491,NV3883111416720130701,Extended,80390332013183,80390332014200,-970,90,274,500,38.838,-114.182,Wildfire,BLACK,-150,1372636800000,4798
1510,CO3901210474920130611,Extended,50330332011200,80330332014200,-970,50,302,580,39.044,-104.693,Wildfire,BLACK FOREST,-150,1370908800000,11885
1527,UT3816611289120130702,Extended,80380342013160,80380342014200,-970,50,196,382,38.119,-112.892,Wildfire,BLACK MOUNTAIN,-150,1372723200000,4603
1540,ID4298711401020130731,Initial,50400302011217,80400302013200,-970,60,250,9999,42.97,-114.011,Wildfire,BLACK RIDGE,-150,1375228800000,1526
1629,FL2925008175020130509,Initial,80160402013087,80160402013100,-970,10,191,400,29.254,-81.75,Prescribed Fire,BLOCKS A B,-200,1368057600000,948
1651,FL2594008100320130516,Initial (SS),NULL,80150422013100,0,450,-9999,-9999,25.953,-80.992,Prescribed Fire,BLUE BIRD 2,0,1368662400000,3866
1750,ID4287511688620130729,Initial,80420302013204,80420302013200,-970,-7,9999,9999,42.872,-116.862,Wildfire,BONJOUR,-150,1375056000000,1231
1884,ID4303611492420130703,Initial,50400302011185,80400302013200,-970,90,350,9999,43.003,-114.945,Wildfire,BRAY LAKE,-150,1372809600000,2461
1925,OR4261812347620130726,Extended,80460302013184,80460302014200,-970,57,321,609,42.606,-123.492,Wildfire,BRIMSTONE FIRE,-150,1374796800000,2444
1969,ID4299711423520130721,Initial,50400302011217,80400302013200,-970,60,320,9999,43.008,-114.177,Wildfire,BROWN BUTTE,-150,1374364800000,7488
1992,ID4291211546620130716,Initial,80410302013181,80410302013200,-970,-1,9999,9999,42.9,-115.487,Wildfire,BROWNS GULCH,-150,1373932800000,4495
2001,ID4234911551120130612,Initial,70410312013157,80410312013200,-970,70,280,9999,42.335,-115.54,Wildfire,BRUNEAU,-150,1370995200000,4937
2053,FL2992508494720130129,Initial,50190392011022,70190392013100,-970,129,9999,9999,29.918,-84.941,Wildfire,BUCK #1,-150,1359417600000,1187
2077,OR4304512272320130726,Extended,80460302013184,80460302014200,-970,35,339,659,43.045,-122.719,Wildfire,BUCKEYE,-150,1374796800000,1785
2092,WY4368810966320130830,Extended,50370302011228,80370302014200,-970,69,251,471,43.696,-109.654,Wildfire,BURROUGHS,-150,1377820800000,1663
2101,CA4133312337620130731,Extended,80460312013184,80460312014200,-970,54,334,636,41.278,-123.392,Wildfire,BUTLER,-150,1375228800000,24058
2128,MN4812109553220130513,Initial,50290272011220,70290272013200,-970,150,350,600,48.158,-95.527,Wildfire,BUFFALO RANCH FIRE,-150,1368403200000,2892
2210,FL3028808495420130108,Initial (SS),NULL,70190392013100,0,497,-9999,-9999,30.279,-84.96,Prescribed Fire,BURN UNIT 005,0,1357603200000,1635
2214,FL3024108496220130110,Initial (SS),NULL,70190392013100,0,497,-9999,-9999,30.242,-84.956,Prescribed Fire,BURN UNIT 016,0,1357776000000,2489
2218,FL3016908507620130218,Initial,50190392010051,70190392013100,-970,2,9999,9999,30.171,-85.077,Prescribed Fire,BURN UNIT 025,-150,1361145600000,1447
2220,FL3018408504920130315,Initial,50190392010099,70190392013100,-970,16,280,9999,30.187,-85.055,Prescribed Fire,BURN UNIT 026,-150,1363305600000,1379
2221,FL3017508504320130215,Initial,50190392010099,70190392013100,-970,20,284,9999,30.179,-85.046,Prescribed Fire,BURN UNIT 027,-150,1360886400000,2203
2241,FL3025708487820130316,Initial,50190392010099,70190392013100,-970,35,301,9999,30.252,-84.872,Prescribed Fire,BURN UNIT 11,-150,1363392000000,4851
2243,FL2992408498520130309,Initial,50190392010099,70190392013100,-970,6,290,9999,29.917,-84.995,Prescribed Fire,BURN UNIT 111,-150,1362787200000,2439
2244,FL3024808492220130221,Initial (SS),NULL,70190392013100,0,518,-9999,-9999,30.245,-84.922,Prescribed Fire,BURN UNIT 17,0,1361404800000,4878
2256,FL3038708445420130301,Initial,50180392011079,70180392013100,-970,83,301,9999,30.386,-84.453,Prescribed Fire,BURN UNIT 216,-150,1362096000000,2601
2257,FL3038008442320130308,Initial,50180392011079,70180392013100,-970,76,302,9999,30.379,-84.42,Prescribed Fire,BURN UNIT 217,-150,1362700800000,4043
2271,FL3028408456720130427,Initial,80180392013116,70190392013100,-970,-39,291,9999,30.283,-84.556,Prescribed Fire,BURN UNIT 244,-150,1367020800000,4767
2272,FL3030708446920131213,Extended,80180392013116,70180392014100,-970,-10,9999,9999,30.307,-84.47,Prescribed Fire,BURN UNIT 246,-150,1386892800000,1330
2280,FL3023408464920130307,Initial,50190392011070,70190392013100,-970,30,300,9999,30.235,-84.654,Prescribed Fire,BURN UNIT 310,-150,1362614400000,4826
2281,FL3019608464420130228,Initial,50190392011070,70190392013100,-970,34,306,9999,30.193,-84.646,Prescribed Fire,BURN UNIT 312,-150,1362009600000,1496
2297,FL3016208474220130112,Initial,50190392010051,70190392013100,-970,99,319,9999,30.161,-84.743,Prescribed Fire,BURN UNIT 51,-150,1357948800000,2390
2299,FL3005708497220131204,Initial,50190392011022,80190392014000,-970,39,290,9999,30.054,-84.991,Prescribed Fire,BURN UNIT 78,-150,1386115200000,4380
2372,MS3396008980320130327,Initial (SS),NULL,80220362013100,0,640,-9999,-9999,33.959,-89.805,Prescribed Fire,C-132,0,1364342400000,889
2400,AK6469214578220130811,Extended,50680152010234,80690152014200,-970,50,232,450,64.695,-145.766,Wildfire,CARIBOU CREEK,-150,1376179200000,2100
2410,NV3620411570220130701,Extended,80400352013174,80400352014100,-970,70,240,450,36.233,-115.606,Wildfire,CARPENTER 1,-150,1372636800000,27879
2502,ID4631911498620130718,Extended,80410282013197,70410282014200,-970,27,207,419,46.341,-114.938,Wildfire,CALIFORNIA POINT,-150,1374105600000,8187
2648,CA3305611654820130706,Initial,80400372013174,80400372013200,-970,50,254,490,32.928,-116.458,Wildfire,CHARIOT,-150,1373068800000,7250
2656,FL3083208681920130329,Initial,70200392013074,70200392013100,-970,-4,300,9999,30.834,-86.82,Wildfire,CHARLIE FOSTER ROAD FIRE,-150,1364515200000,923
2677,CA3755011992320130616,Extended,80430342013163,80430342014200,-970,100,332,600,37.544,-119.873,Wildfire,CARSTENS,-150,1371340800000,1733
2710,AZ3659711232020130912,Initial,50370352011292,80370352013300,-970,50,9999,9999,36.601,-112.314,Prescribed Fire,CASTLE FIRE FY13,-150,1378944000000,1300
2714,AK6347715210120130706,Extended,50710162009188,80710162014200,-970,80,335,620,63.453,-152.044,Wildfire,CASTLE ROCK,-150,1373068800000,12884
2739,NV4188211609920130716,Initial,80410312013181,80410312013200,-970,110,255,450,41.889,-116.084,Wildfire,CATTLE GUARD,-150,1373932800000,3991
2791,OR4325611768420130808,Initial,50430302011238,80430302013200,-970,110,392,9999,43.271,-117.689,Wildfire,CEDAR MOUNTAIN,-150,1375920000000,23836
2819,FL2858008245420130527,Initial (SS),NULL,80170402013200,0,420,300,-9999,28.599,-82.448,Wildfire,CEMENT,0,1369612800000,654
2829,FL2846408065320130401,Initial,80160402013087,80160402013100,-970,50,9999,9999,28.478,-80.658,Wildfire,CENTER,-150,1364774400000,2237
2832,ID4557211499520130801,Extended,80410282013197,80410282014200,-970,76,262,456,45.581,-114.981,Wildfire,CENTER,-150,1375315200000,1543
2880,AK6703814733320130623,Extended,50700132009197,80700132014200,-970,50,300,600,67.048,-147.294,Wildfire,CHANDALAR,-150,1371945600000,16351
2910,NV3887711778720130818,Extended,80410332013181,80410332014200,-970,50,211,410,38.876,-117.803,Wildfire,CHESTNUT,-150,1376784000000,4040
2931,CA4033512251120130909,Initial,80450322013241,80450322013300,-970,39,251,493,40.457,-122.522,Wildfire,CLOVER,-150,1378684800000,8267
3014,AK6251014141420130531,Extended,50640162009203,80640162014200,-970,50,275,530,62.431,-141.538,Wildfire,CHISANA RIVER,-150,1369958400000,44397
3019,AK6465615244420130803,Initial,50730152010237,80720152013200,-970,30,360,700,64.634,-152.401,Wildfire,CHITANANA,-150,1375488000000,3638
3089,ID4270211406820130731,Initial,50400302011217,70400302013200,-970,120,400,9999,42.729,-114.035,Wildfire,CINDER ROAD,-150,1375228800000,4478
3097,CO4028410821720130721,Extended,50360322011157,80350322014200,-970,46,188,368,40.283,-108.207,Wildfire,CITADEL,-150,1374364800000,1894
3172,ID4236411513020130731,Initial,80400312013190,80400312013200,-970,50,250,9999,42.384,-115.09,Wildfire,COONSKIN,-150,1375228800000,4388
3174,AZ3676111223020130912,Initial,50370352011292,80370352013300,-970,110,300,9999,36.749,-112.226,Prescribed Fire,COOPER FIRE FY13,-150,1378944000000,1168
3222,CO4051910728920130817,Initial,50350322011262,80350322013300,-970,173,399,717,40.518,-107.275,Wildfire,COG,-150,1376697600000,1035
3271,WA4729912010620130727,Initial,50450272011220,80450272013200,-970,76,322,590,47.18,-120.135,Wildfire,COLOCKUM TARPS,-150,1374883200000,79279
3282,AK6906715636720130620,Initial (SS),NULL,80770112013200,0,457,-9999,-9999,69.082,-156.367,Wildfire,COLVILLE,0,1371686400000,1043
3404,WA4651612128520130809,Extended,80450282013209,80450282014200,-970,38,202,402,46.52,-121.293,Wildfire,CONRAD LAKE,-150,1376006400000,1106
3442,CA4103512348820130810,Extended,80460312013184,80460312014200,-970,54,310,596,41.031,-123.469,Wildfire,CORRAL COMPLEX,-150,1376092800000,13595
3477,AZ3339910989520130616,Initial,80350372013155,80350372013200,-970,50,330,9999,33.397,-109.834,Wildfire,CREEK,-150,1371340800000,16120
3483,NV4108911799220130701,Initial,80420312013156,80420312013200,-970,27,9999,9999,41.139,-118.02,Wildfire,CRESCENT DUNE,-150,1372636800000,36771
3611,ID4514711504320130830,Initial,50410292011256,70410292013300,-970,130,404,9999,45.145,-115.026,Wildfire,COXEY,-150,1377820800000,1082
3629,AZ3163711164220130707,Initial,80360382013178,80360382013200,-970,80,240,9999,31.635,-111.636,Wildfire,COYOTE,-150,1373155200000,1493
3692,WI4586009263320131001,Initial,50270282011254,80270282013300,-970,250,560,720,45.858,-92.611,Wildfire,CRANBERRY FIRE,-150,1380585600000,779
3700,ID4297811589920130801,Initial,80410302013213,70410302013200,-970,18,9999,9999,42.967,-115.881,Wildfire,CRANE FALLS,-150,1375315200000,1009
3739,CA4002112187220130823,Initial,80440322013218,80440322013300,-970,38,398,9999,40.075,-121.859,Wildfire,DEER,-150,1377216000000,11870
3761,OR4271811775920130701,Initial,80420302013156,80420302013200,-970,25,9999,9999,42.701,-117.743,Wildfire,CROOKED CREEK,-150,1372636800000,4631
3789,OR4332911796620130610,Initial,50430302011190,80430302013200,-970,156,378,9999,43.344,-117.938,Wildfire,CROWLEY CREEK,-150,1370822400000,13312
3833,AK6027615391520130627,Extended,70710182011186,80700182014200,-970,170,390,660,60.299,-153.951,Wildfire,CURRANT CREEK,-150,1372291200000,1986
3839,OR4380411811620130630,Initial,80430302013163,80430302013200,-970,53,9999,9999,43.809,-118.124,Wildfire,CURRY CANYON,-150,1372550400000,2630
3854,MS3436008927220130308,Initial,50220362011075,70220362013100,-970,50,9999,9999,34.357,-89.271,Prescribed Fire,CYPRESS CEMETERY RX BURN,-150,1362700800000,805
3857,OR4273212351520130726,Extended,80460302013184,80460302014200,-970,70,320,599,42.718,-123.518,Wildfire,DADS,-150,1374796800000,25216
3876,MT4767511333320130811,Extended,80410272013197,80410272014200,-970,76,240,456,47.66,-113.319,Wildfire,DAMNATION,-150,1376179200000,7296
3914,TN3605708268520130410,Initial (SS),NULL,80180352013100,0,350,-9999,-9999,36.062,-82.672,Prescribed Fire,DAVIS CREEK,0,1365552000000,1616
3938,WA4603312001420130910,Initial (SS),NULL,70440282013300,0,-10,-9999,-9999,46.047,-120.022,Wildfire,DEAD CANYON,0,1378771200000,4123
3943,AK6409815158720130624,Extended,80710152013167,80710152014200,-970,50,259,500,64.081,-151.63,Wildfire,DEAD FISH LAKE,-150,1372032000000,5870
3956,AZ3511911386220130629,Initial,50380362011219,80380362013200,-970,50,243,470,35.136,-113.86,Wildfire,DEAN PEAK,-150,1372464000000,5846
4004,CA3337411729920131005,Initial,80400372013270,80400372013300,-970,50,292,560,33.362,-117.314,Wildfire,DELUZ,-150,1380931200000,2358
4069,WA4652112025720130607,Initial,50450282011172,80450282013200,-970,50,300,9999,46.469,-120.208,Wildfire,DESMARAIS,-150,1370563200000,9120
4130,AZ3641611351820130702,Extended,80380352013176,80380352014200,-970,50,146,290,36.419,-113.496,Wildfire,DEWDROP,-150,1372723200000,1297
4167,ID4292511421220130822,Initial,80400302013222,80400302013200,-970,-10,9999,9999,42.939,-114.238,Wildfire,DIETRICH BUTTE,-150,1377129600000,1152
4192,AK6596714568320130701,Extended,50690142008236,70690142014200,-970,50,302,580,65.997,-145.756,Wildfire,DISCOVERY CREEK,-150,1372636800000,13439
4230,AZ3459511259620130618,Extended,80370362013153,80370362014200,-970,100,186,330,34.632,-112.567,Wildfire,DOCE,-150,1371513600000,6858
4240,AK6124915895920130530,Initial,50750172008166,80750172013200,-970,100,321,580,61.231,-158.956,Wildfire,DOESTOCK CREEK,-150,1369872000000,24634
4300,ID4452811445820130720,Extended,50410292011208,80410292014200,-970,83,247,463,44.562,-114.426,Wildfire,LODGEPOLE,-150,1374278400000,22406
4439,OR4254611719320130807,Initial,80420302013204,80420302013200,-970,13,9999,9999,42.554,-117.202,Wildfire,LONE TREE,-150,1375833600000,1543
4665,AK6798314411720130715,Extended,50690122010241,80690122013200,-970,50,313,600,68.001,-144.114,Wildfire,KONESS,-150,1373846400000,1723
4682,AK6104215418920130618,Extended,50720172011201,80710172014200,-970,200,395,650,61.059,-154.208,Wildfire,KRISTIN CREEK,-150,1371513600000,16076
4721,NC3572808220620130322,Initial (SS),NULL,70180352013100,0,180,-9999,-9999,35.708,-82.205,Prescribed Fire,LOST BEAR EAST,0,1363910400000,2167
4722,NC3571708222420130308,Initial (SS),NULL,70180352013100,0,190,-9999,-9999,35.705,-82.234,Prescribed Fire,LOST BEAR WEST,0,1362700800000,565
4763,AZ3302711459320130519,Initial,50380372011139,80380372013100,-970,50,302,580,33.055,-114.655,Wildfire,ISLAND LAKE,-150,1368921600000,2021
4822,OR4236712381420130726,Extended,80460312013184,80460312014200,-970,34,262,510,42.359,-123.81,Wildfire,LABRADOR,-150,1374796800000,2108
4832,AK6340514152420130625,Extended,50640162011241,80650162014200,-970,50,259,500,63.371,-141.553,Wildfire,LADUE FORK,-150,1372118400000,7517
4963,ID4562711506620130714,Extended,80410282013197,80410282014200,-970,76,262,456,45.623,-115.019,Wildfire,LAKE,-150,1373760000000,5468
4984,FL3045008681920130305,Initial (SS),NULL,70200392013100,0,299,-9999,-9999,30.497,-86.821,Wildfire,LOW KEY,0,1362441600000,5554
5009,AR3614109250020130306,Initial,50240352010102,80240352013100,-970,110,325,9999,36.126,-92.473,Prescribed Fire,LOWER WILDERNESS RX,-150,1362528000000,8699
5021,CA3790512187420130908,Extended,80440342013106,80440342014100,-970,85,299,545,37.883,-121.901,Wildfire,MORGAN,-150,1378598400000,3029
5068,VA3810607881420130410,Extended,50160342011161,80160342014200,-970,25,250,9999,38.105,-78.792,Prescribed Fire,JARMAN GAP BROADCAST,-150,1365552000000,559
5069,NM3591110572720130610,Extended,50330352011168,80330352014200,-970,80,319,590,35.899,-105.679,Wildfire,JAROSO,-150,1370822400000,9529
5193,UT4164511180820130811,Initial,50380312011251,70380312013200,-970,105,285,509,41.642,-111.779,Wildfire,MILLVILLE,-150,1376179200000,2934
5224,ID4304611403620130701,Initial,50400302011201,80400302013200,-970,50,250,9999,43.012,-114.067,Wildfire,JIM BROWN,-150,1372636800000,14710
5266,OR4311811880120130812,Initial,80430302013211,80430302013200,-970,8,298,9999,43.121,-118.777,Wildfire,LAVA,-150,1376265600000,6822
5275,ID4277311180620130805,Initial,80390302013215,80390302013200,-970,26,222,450,42.781,-111.809,Wildfire,MABEY,-150,1375660800000,1183
5322,CA3370511672620130715,Initial,50400372011217,80400372013200,-970,120,318,560,33.734,-116.635,Wildfire,MOUNTAIN,-150,1373846400000,28202
5328,AK6390815136820130622,Extended,80710152013167,80710152014200,-970,50,232,450,63.901,-151.378,Wildfire,MOVING RIVER,-150,1371859200000,33629
5436,WA4606511698720130608,Initial,50430282011190,80430282013200,-970,142,9999,9999,46.081,-117.011,Wildfire,MAIL TRAIL,-150,1370649600000,2645
5440,AK6456715578620130713,Initial,50740152010244,80740152013200,-970,25,290,575,64.569,-155.769,Wildfire,MAIN CREEK,-150,1373673600000,1028
5473,OR4480712141020130515,Initial,50450292011140,80450292013200,-970,95,299,9999,44.804,-121.437,Prescribed Fire,MUDDY RUN UB,-150,1368576000000,1433
5500,AK6721914527720130629,Extended,50690132010241,80690132014200,-970,50,302,580,67.226,-145.252,Wildfire,JOINT LAKE,-150,1372464000000,3681
5501,WA4611812034420130811,Initial,50450282011220,80450282013200,-970,50,313,9999,46.098,-120.314,Wildfire,JOJO FIRE,-150,1376179200000,4238
5525,ID4379911505820130703,Extended,50410302011208,80410302014200,-970,83,247,463,43.798,-115.038,Wildfire,LEGGIT,-150,1372809600000,1150
5536,LA2985009350920130905,Initial (SS),NULL,80240392013300,0,640,-9999,-9999,29.842,-93.494,Wildfire,LEONARD,0,1378339200000,7235
5575,WA4701412103420130809,Extended,80450272013209,80450272014200,-970,39,300,590,47.018,-121.009,Wildfire,MANASTASH RIDGE,-150,1376006400000,1534
5604,MT4548111089520130816,Extended,50380292009197,70380292014200,-970,28,214,432,45.298,-110.803,Wildfire,MINER PARADISE COMPLEX,-150,1376611200000,12210
5668,ID4250611694020130813,Initial,50420302011247,80420302013300,-970,26,411,9999,42.526,-116.922,Wildfire,JUNI,-150,1376352000000,2454
5824,AK6145515569120130531,Extended,50730172008216,70730172014200,-970,50,302,580,61.546,-155.429,Wildfire,LIME HILLS,-150,1369958400000,193968
5897,MS3449708937620130309,Initial,50220362011075,70220362013100,-970,50,9999,9999,34.495,-89.381,Prescribed Fire,MIDWAY CEM PRESCRIBED BURN,-150,1362787200000,2513
5910,WA4599612064920130724,Extended,50450282011204,80450282014200,-970,48,266,512,46.008,-120.612,Wildfire,MILE MARKER 28,-150,1374624000000,25605
5913,WA4732812014720130809,Initial,50450272011220,80450272013200,-970,50,308,590,47.323,-120.161,Wildfire,MILEPOST 10,-150,1376006400000,7051
5933,AK6634615095120130624,Extended,80730132013165,80710142014200,-970,-10,210,450,66.357,-150.965,Wildfire,KANUTI RIVER 1,-150,1372032000000,2032
6031,AK6389314599320130530,Initial,50680152010266,80680152013300,-970,10,234,480,64.023,-146.061,Wildfire,MISSISSIPPI,-350,1369872000000,59188
6074,ID4355711510020130824,Extended,50410302011208,80410302014200,-970,128,304,530,43.571,-115.045,Wildfire,KELLEY,-150,1377302400000,16291
6126,FL2867508073220130512,Initial,80160402013087,80160402013100,-970,50,9999,9999,28.672,-80.733,Wildfire,MAY DAY,-150,1368316800000,1430
6144,CA3881312282620131122,Initial,80450332013321,80450332013400,-970,58,252,482,38.802,-122.839,Wildfire,MCCABE,-150,1385078400000,3330
6145,ID4342011485220130807,Initial,80410302013213,80400302013200,-970,110,376,676,43.431,-114.932,Wildfire,MCCAN,-150,1375833600000,22874
6160,AK6342814369920130625,Extended,50660162009249,80660162014200,-970,116,328,582,63.452,-143.669,Wildfire,MOON LAKE,-150,1372118400000,27819
6175,WA4822512060220130728,Initial,80450262013209,80450262013200,-970,54,300,590,48.223,-120.583,Wildfire,MOORE POINT,-150,1374969600000,1441
6186,MT4607711363820130716,Extended,80400282013190,80410282014200,-970,54,300,590,46.075,-113.589,Wildfire,MOOSE MEADOWS,-150,1373932800000,3449
6241,AK6461615416920130624,Extended (SS),NULL,70740152014200,0,450,300,100,64.62,-154.211,Wildfire,LITTLE MUD,0,1372032000000,28050
6257,ID4388711518020130817,Extended,50410292011208,80410292014200,-970,76,270,508,43.875,-115.16,Wildfire,LITTLE QUEENS,-150,1376697600000,27550
6262,OK3511309497820130327,Initial (SS),NULL,70260362013100,0,560,-9999,-9999,35.105,-94.961,Wildfire,MCCURTAIN 3722,0,1364342400000,1171
6288,TN3533408408020130317,Initial (SS),NULL,70190352013100,0,430,-9999,-9999,35.337,-84.092,Prescribed Fire,MCINTYRE-A,0,1363478400000,2695
6319,MO3712009119720130413,Initial,70240342013086,80240342013100,-970,-40,250,9999,37.116,-91.197,Prescribed Fire,MILL BUZZARD RX,-150,1365811200000,973
6412,AK6356715135220130628,Extended,50710152009188,80710152014200,-970,90,328,600,63.574,-151.333,Wildfire,MCKINLEY RIVER EAST,-150,1372377600000,4540
6527,ID4450111717720130829,Initial,80420292013236,80420292013300,-970,57,301,9999,44.518,-117.12,Wildfire,HELLS CANYON,-150,1377734400000,8972
6581,CA3620811844420130823,Extended,80410352013165,80410352014200,-970,70,240,450,36.23,-118.427,Wildfire,FISH,-150,1377216000000,2141
6617,NV4034411693620130630,Extended,80410322013133,80410322014200,-970,50,205,400,40.351,-116.939,Wildfire,GOAT PEAK,-150,1372550400000,2029
6639,MT4565711478020130716,Extended,80410282013197,70410282014200,-970,83,300,553,45.68,-114.632,Wildfire,GOLD PAN COMPLEX,-150,1373932800000,43216
6797,FL2536908064920130312,Initial (SS),NULL,70150422013100,0,400,-9999,-9999,25.367,-80.646,Prescribed Fire,HID EAST,0,1363046400000,1535
6847,NV4075811799020130702,Initial,80420322013172,80420322013200,-970,10,300,9999,40.778,-117.986,Wildfire,DUN GLEN,-150,1372723200000,1968
6883,FL2850808064820130617,Initial (SS),NULL,70160402013200,0,500,-9999,-9999,28.505,-80.655,Prescribed Fire,FLMIR-FY2013-RX-COMPARTMENT 9-1,0,1371427200000,1517
6885,FL2845808085120130112,Initial (SS),NULL,70160402013000,0,300,-50,-9999,28.458,-80.851,Wildfire,FLORA VISTA,0,1357948800000,889
6904,OR4554912089520130601,Initial,50450282011172,80450282013200,-970,100,332,600,45.548,-120.862,Wildfire,GORDON BUTTE,-150,1370044800000,4226
6917,OR4551712135520130816,Extended,80450282013209,80450282014200,-970,16,262,568,45.518,-121.386,Wildfire,GOVERNMENT FLATS COMPLEX,-150,1376611200000,10993
6929,CA3481811891020130515,Initial,80410362013117,80410362013100,-970,100,305,550,34.789,-118.911,Wildfire,GRAND,-150,1368576000000,4526
6980,FL2929308118020130302,Initial,50160402011081,80160402013100,-970,70,400,9999,29.291,-81.159,Wildfire,DURRANCE FIRE,-150,1362182400000,1245
7044,WA4604511708320130829,Initial,80430282013227,80430282013200,-970,38,462,9999,46.033,-117.09,Wildfire,GRANDE RONDE,-150,1377734400000,1342
7113,WA4765212058420130819,Extended,80450272013209,80450272014200,-970,34,304,600,47.654,-120.571,Wildfire,EAGLE,-150,1376870400000,1573
7178,AK6480714763620130521,Initial (SS),NULL,80690152013200,0,300,-9999,-9999,64.801,-147.621,Prescribed Fire,FORT WAINWRIGHT SMALL ARMS RANGE RX,0,1369094400000,1774
7197,OR4265911735820130807,Initial,80420302013204,80420302013200,-970,13,9999,9999,42.652,-117.363,Wildfire,GRASSY MOUNTAIN,-150,1375833600000,15454
7219,ID4282711470820130701,Initial,50400302011185,80400302013200,-970,100,9999,9999,42.814,-114.736,Wildfire,HWY46 MM103,-150,1372636800000,1955
7220,ID4308711468320130911,Initial,80400302013254,70400302013300,-970,50,250,9999,43.104,-114.733,Wildfire,HWY46 MM123,-150,1378857600000,3203
7304,AR3333509185320130914,Initial,50240372011281,70240372013300,-970,50,319,610,33.325,-91.882,Wildfire,FOUNTAIN HILL,-150,1379116800000,655
7317,AZ3328610958720130607,Initial,80350372013155,80350372013200,-970,50,250,9999,33.283,-109.546,Wildfire,FOURMILE,-150,1370563200000,12960
7355,OR4450012161420130731,Extended,80450292013193,80450292014200,-970,28,284,566,44.49,-121.592,Wildfire,GREEN RIDGE,-150,1375228800000,1737
7391,OR4275011847620130808,Initial,80430302013227,80430302013200,-970,15,363,717,42.739,-118.498,Wildfire,HOUSE CREEK,-150,1375920000000,2802
7403,CO3745910490420130619,Extended,50330342010229,80330342014200,-970,100,359,650,37.428,-104.877,Wildfire,EAST PEAK,-150,1371600000000,10082
7474,NV3721611485020130705,Initial,80390342013183,80390342013200,-970,50,120,9999,37.18,-114.84,Wildfire,GREGERSON,-150,1372982400000,2994
7526,FL2610108128120130312,Initial,50160422011081,80160422013100,-970,50,400,9999,26.096,-81.308,Wildfire,HUCKABEE,-150,1363046400000,19723
7541,AZ3453511283420130815,Initial,50370362011228,80370362013200,-970,-10,130,9999,34.554,-112.848,Wildfire,EASTWOOD MESA,-150,1376524800000,3729
7627,OR4448711902320130807,Initial,80430292013195,80430292013200,-970,45,249,485,44.463,-118.968,Wildfire,GROUSE MOUNTAIN,-150,1375833600000,12361
7661,KS3914109677420131117,Initial (SS),NULL,80280332013300,0,50,-325,-9999,39.156,-96.771,Wildfire,IMPACT COMPLEX,0,1384646400000,5233
7665,ID4633711602720130818,Initial,50420282011247,80420282013300,-970,83,337,9999,46.321,-116.007,Wildfire,INCENDIARY CREEK,-150,1376784000000,1291
7814,ID4355611604320130806,Initial,50410302011224,80410302013200,-970,91,9999,9999,43.551,-116.025,Wildfire,HILL TOP,-150,1375747200000,1091
7856,ID4334011550020130809,Initial,50410302010237,70410302013200,-970,83,337,627,43.478,-115.484,Wildfire,ELK COMPLEX,-150,1376006400000,129565
7875,FL2621908080320130125,Initial (SS),NULL,70150422013100,0,400,-9999,-9999,26.236,-80.856,Prescribed Fire,FY13 DUDDA SHOP,0,1359072000000,4329
7876,WY4444011029620131001,Extended,50380292011187,70380292014200,-970,1,183,397,44.471,-110.27,Prescribed Fire,FY13 YELL WFU INCIDENTS,-150,1380585600000,2125
7925,TN3586208313020131104,Initial (SS),NULL,80180352013300,0,450,100,-9999,35.855,-83.13,Wildfire,HALLS TOP,0,1383523200000,702
7962,OK3449109702920130217,Initial,50270362011046,70270362013100,-970,100,300,9999,34.478,-97.03,Prescribed Fire,HUNTING RX FY13,-150,1361059200000,1367
8014,AK6164015534020130730,Extended,50730172008216,70730172014200,-970,60,306,580,61.644,-155.304,Wildfire,GAGARYAH 2,-150,1375142400000,4903
8035,CO4056810518720130315,Initial,50340322010076,70340322013100,-970,20,9999,9999,40.568,-105.176,Wildfire,GALENA FIRE,-150,1363305600000,1319
8051,AK6344115780520130627,Extended,80750162013163,80740162014100,-970,75,336,625,63.451,-157.783,Wildfire,HAMMER CREEK,-150,1372291200000,5925
8063,OK3638809626920130317,Initial (SS),NULL,80270352013100,0,220,-9999,-9999,36.386,-96.276,Wildfire,HANEY,0,1363478400000,1306
8085,FL2928608171420130302,Extended,50160402011161,80160402014100,-970,50,205,400,29.282,-81.683,Wildfire,HOPKINS PRAIRIE,-150,1362182400000,2078
8108,ID4235011523620130716,Initial,80410312013181,80410312013200,-970,110,280,9999,42.389,-115.274,Wildfire,HORSE BUTTE 2,-150,1373932800000,5326
8203,WY4395910974120130720,Extended,50370302011228,80370302014200,-970,76,270,508,43.932,-109.726,Wildfire,HARDLUCK,-150,1374278400000,25911
8270,MT4482411189420130812,Extended,80390292013167,70390292014200,-970,154,288,482,44.844,-111.884,Wildfire,EUREKA,-150,1376265600000,6213
8283,AK6269814518520130627,Extended (SS),NULL,80660162014200,0,528,272,8,62.705,-145.155,Wildfire,EXCELSIOR,0,1372291200000,6230
8293,WY4273810886420130722,Initial,50370302011228,80370302013200,-970,83,329,605,42.74,-108.848,Wildfire,FAIRFIELD,-150,1374451200000,1457
8389,TN3658608406520130512,Initial,50190352011150,70190352013100,-970,50,313,600,36.582,-84.057,Wildfire,HWY 25 - HIGH CLIFF,-150,1368316800000,506
8418,CA3361811742120130805,Initial,80400372013206,80400372013200,-970,90,323,590,33.637,-117.393,Wildfire,FALLS,-150,1375660800000,1577
8458,CA3306911654520130526,Initial,80400372013142,80400372013200,-970,50,280,9999,33.041,-116.498,Wildfire,GENERAL,-150,1369526400000,1431
8485,CA3400311682420130609,Initial,80400362013158,80400362013200,-970,80,319,590,34.024,-116.801,Wildfire,HATHAWAY,-150,1370736000000,3859
8560,CA3312611651920130523,Initial,80400372013142,80400372013200,-970,90,269,490,33.12,-116.542,Wildfire,FELIPE,-150,1369267200000,2961
8572,NV3964811658420130609,Extended,50410322010157,80410322014200,-970,50,200,390,39.648,-116.594,Wildfire,FERGUSON,-150,1370736000000,1232
8587,WI4627409167120130514,Initial,50260282011183,70260282013200,-970,50,340,650,46.334,-91.607,Wildfire,GERMANN ROAD FIRE,-150,1368489600000,6751
8665,AK6145515688920130626,Initial (SS),NULL,80730172013300,0,400,100,-150,61.443,-156.89,Wildfire,HOHOLITNA,0,1372204800000,3166
8673,FL2636608070120130513,Initial (SS),NULL,70150422013100,0,300,-9999,-9999,26.381,-80.693,Wildfire,HOLEY LAND 1 FIRE,0,1368403200000,7821
8710,ID4321511470020130728,Initial,80400302013206,80400302013200,-970,100,235,420,43.199,-114.665,Wildfire,FIR GROVE,-150,1374969600000,7133
8716,MT4717911397520130727,Extended,80410272013181,80410272014200,-970,47,309,595,47.186,-113.961,Wildfire,FIRESTONE,-150,1374883200000,1663
8765,OR4380111810220130731,Initial,80430302013195,80430302013200,-970,0,9999,9999,43.783,-118.1,Wildfire,STEMLER RIDGE,-150,1375228800000,3106
8788,OR4328611798320130610,Initial,50430302011190,80430302013200,-970,156,378,9999,43.279,-117.949,Wildfire,STOCKADE,-150,1370822400000,6930
8814,AK6430315303620130627,Extended,50720152010262,70720152014300,-970,75,242,450,64.299,-153.018,Wildfire,TITNA,-150,1372291200000,3056
8864,OR4296111781820130702,Initial,80430302013163,80430302013200,-970,15,9999,9999,42.978,-117.813,Wildfire,SAND SPRINGS,-150,1372723200000,2165
8894,AZ3591311201420130726,Initial,50370352011292,80370352013300,-970,90,290,9999,35.916,-112.037,Wildfire,SKINNER,-150,1374796800000,1482
8895,AK6473614868920130625,Extended (SS),NULL,80690152014200,0,450,290,20,64.725,-148.647,Wildfire,SKINNYS ROAD,0,1372118400000,1994
8951,AK6369315014320130626,Extended,80710152013167,80700152014200,-970,50,254,490,63.784,-150.167,Wildfire,TOKLAT RIVER EAST,-150,1372204800000,34216
8986,AK6398915063220130625,Extended,80710152013167,80700152014200,-970,50,243,470,64.072,-150.446,Wildfire,SANDLESS LAKE,-150,1372118400000,56931
9035,AR3608809248420130308,Initial,50240352010102,80240352013100,-970,110,325,9999,36.088,-92.49,Wildfire,SLICK ROCK HOLLOW,-150,1362700800000,1218
9073,AK6470014646720130619,Initial (SS),NULL,80680152013300,0,420,100,-100,64.757,-146.711,Wildfire,STUART CREEK #2,0,1371600000000,87981
9129,TX2884109573020130215,Initial (SS),NULL,70250402013100,0,170,-9999,-9999,28.773,-95.737,Wildfire,SARGENT RANCH,0,1360886400000,1395
9187,NV4052111560220130719,Initial,80400322013190,80400322013200,-970,50,232,450,40.502,-115.584,Wildfire,SMITH RANCH,-150,1374192000000,2937
9211,AK6426615431620130621,Extended,70730152011248,70730152014200,-970,75,296,550,64.23,-154.401,Wildfire,SULATNA RIVER,-150,1371772800000,44423
9295,SC3456708018920130301,Initial,50160362011081,70160362013100,-970,-10,9999,9999,34.556,-80.201,Prescribed Fire,SCCRR-FY13-RX-COMP-15,-150,1362096000000,638
9301,WV3888307928320131110,Initial,50170332011312,80170332013300,-970,50,300,9999,38.863,-79.304,Wildfire,SMOKE HOLE FIRE,-150,1384041600000,1436
9333,NV4007011490520130808,Extended,50400322011201,70400322014200,-970,60,209,400,40.072,-114.892,Wildfire,SNOW CREEK,-150,1375920000000,1295
9339,CA3394511686920130501,Initial,80400362013110,80400362013100,-970,150,340,580,33.959,-116.909,Wildfire,SUMMIT,-150,1367366400000,3319
9353,ID4315411662120130716,Initial,80420302013188,80420302013200,-970,35,9999,9999,43.148,-116.646,Wildfire,SUNK,-150,1373932800000,2272
9358,OR4481412123520130720,Initial,80450292013193,80450292013200,-970,16,262,530,44.881,-121.178,Wildfire,SUNNYSIDE TURNOFF,-150,1374278400000,50028
9421,MT4677211425120130818,Extended,80410272013197,80410272014200,-970,50,272,524,46.77,-114.247,Wildfire,SCHOOLHOUSE,-150,1376784000000,8484
9478,AZ3143511076720130517,Initial,50360382011157,80360382013200,-970,70,250,9999,31.455,-110.761,Wildfire,SOLDIER BASIN,-150,1368748800000,11052
9636,CA3944512141720130816,Extended,80440332013106,80440332014100,-970,128,337,590,39.464,-121.411,Wildfire,SWEDES,-150,1376611200000,2718
9728,AK6413515308520130802,Extended,50730152010189,80730152014200,-970,30,246,490,64.158,-153.046,Wildfire,SETHKOKNA,-150,1375401600000,3742
9764,AK6558315963320130623,Initial,80780142013168,80770142013200,-970,-80,175,434,65.611,-159.572,Wildfire,SOUTH FORK,-150,1371945600000,6398
9781,AZ3149011031020130301,Initial,50350382011102,80350382013100,-970,40,350,9999,31.516,-110.342,Prescribed Fire,T2 BLACKTAIL AND MIKE BURN BLOCKS,-150,1362096000000,1843
9789,AK6229614682320130731,Extended,50670162009160,80670162014200,-970,50,270,520,62.312,-146.839,Wildfire,TABERT LAKE,-150,1375228800000,1525
9871,AK6412116029820130620,Extended,50770152009230,70780152014200,-970,66,306,570,64.126,-160.284,Wildfire,SHAKTOOLIK RIVER,-150,1371686400000,11972
9889,OR4239411714320130807,Initial,80420302013204,80420302013200,-970,5,9999,9999,42.378,-117.139,Wildfire,SHARON CREEK,-150,1375833600000,10576
9914,FL2857008259320130329,Initial (SS),NULL,70170402013100,0,400,80,-9999,28.565,-82.591,Wildfire,SOUTH ROAD FIRE,0,1364515200000,1045
10050,ID4275411432420130801,Initial,80400302013190,80400302013200,-970,50,9999,9999,42.74,-114.246,Wildfire,SOUTHEAST RED BRIDGE,-150,1375315200000,8640
10089,TN3658308181620130409,Initial,50180352011111,80180352013100,-970,50,300,9999,36.576,-81.812,Prescribed Fire,TANK HOLLOW,-150,1365465600000,1340
10181,ID4242311555520130727,Initial,80410312013181,80410312013200,-970,50,260,9999,42.43,-115.559,Wildfire,SHEEPSHEAD,-150,1374883200000,2247
10315,MS3111308914320130325,Initial,50210382011148,70210382013100,-970,50,300,9999,31.074,-89.114,Wildfire,SHEPARDS TRAIL,-150,1364169600000,2327
10356,NV3826311825020130818,Initial,80420332013220,80420332013200,-970,80,243,450,38.25,-118.89,Wildfire,SPRING PEAK,-150,1376784000000,13901
10362,CA3420011896420130502,Initial,80410362013117,80410362013100,-970,130,305,530,34.133,-119.004,Wildfire,SPRINGS,-150,1367452800000,24042
10408,AK6328614244520130625,Extended,50640162011145,80640162014100,-970,50,308,590,63.297,-142.287,Wildfire,TETLIN JCT RIDGE,-150,1372118400000,18530
10433,NM3571510568020130530,Extended,50330352011168,80330352014200,-970,50,302,580,35.727,-105.671,Wildfire,TRES LAGUNAS,-150,1369872000000,5832
10659,UT4182011233920130708,Initial,80390312013183,80390312013200,-970,44,9999,9999,41.811,-112.32,Wildfire,THIRTY TWO,-150,1373241600000,1114
10678,NM3589210662020130531,Extended,50340352011159,80340352014200,-970,50,302,580,35.89,-106.557,Wildfire,THOMPSON RIDGE,-150,1369958400000,21077
10687,MO3712009118820130405,Initial,70240342013086,80240342013100,-970,-40,250,9999,37.124,-91.153,Prescribed Fire,THORNY CREEK,-150,1365120000000,2143
10692,TX2963009419420130824,Initial (SS),NULL,70240392013200,0,400,-9999,-9999,29.631,-94.206,Wildfire,UNIT 1 2013,0,1377302400000,1355
10733,ID4523311513120130813,Extended,50410292011192,80410292014200,-970,28,256,514,45.231,-115.13,Wildfire,SILVER,-150,1376352000000,1258
10734,CA3391811691120130807,Initial,50400362011217,80400362013200,-970,150,340,580,33.879,-116.804,Wildfire,SILVER,-150,1375833600000,20863
10735,NM3288810780920130607,Extended,50340372011287,80340372013300,-970,54,262,508,32.989,-107.835,Wildfire,SILVER,-150,1370563200000,137884
10796,FL2902408153620130619,Initial (SS),NULL,70160402013200,0,500,-9999,-9999,29.037,-81.538,Prescribed Fire,STARK SOUTH,0,1371600000000,544
10821,AZ3320510963220130507,Initial,80350372013123,80350372013100,-970,20,200,9999,33.224,-109.655,Prescribed Fire,THREE-IN-ONE RX-BURN,-150,1367884800000,3521
10828,ID4497911525820130719,Extended,50410292011208,80410292014200,-970,33,209,419,44.994,-115.178,Wildfire,THUNDER CITY,-150,1374192000000,12562
10875,AR3337009208720130917,Initial,50240372011281,70240372013300,-970,50,319,610,33.388,-92.099,Wildfire,SINGLETON CREEK,-150,1379376000000,1124
10883,AK6674615365020130621,Extended,70740132012226,80740132014200,-970,90,315,575,66.731,-153.663,Wildfire,SIRUK CREEK,-150,1371772800000,21265
10908,UT4197511236920130808,Initial,80390312013215,80390312013200,-970,43,315,609,42.029,-112.343,Wildfire,STATE,-150,1375920000000,31011
10959,AK6720915178420130620,Extended,50720132010214,80730132014200,-970,50,273,525,67.223,-151.749,Wildfire,TIMBER CREEK,-150,1371686400000,2617
11049,OR4237611972920130916,Initial,80430312013259,80430312013300,-970,46,362,9999,42.376,-119.712,Wildfire,RIFFLE,-150,1379289600000,1087
11063,CA3785712008620130817,Extended,80430342013195,80430342014200,-970,90,314,575,37.916,-119.969,Wildfire,RIM,-150,1376697600000,257084
11186,CA3824712003420130805,Extended,80430332013179,80430332014200,-970,70,294,550,38.25,-120.016,Wildfire,POWER,-150,1375660800000,1181
11199,MN4797009546320130513,Initial (SS),NULL,70290272013100,0,123,-9999,-9999,48.006,-95.485,Wildfire,RIVER ROAD,0,1368403200000,1803
11248,AK6539814152220130620,Extended,50660142009249,80660142014200,-970,-41,202,457,65.38,-141.542,Wildfire,NATION RIVER,-150,1371686400000,11568
11295,CA4018812160120130501,Extended,50440322011165,80440322014200,-970,68,310,582,40.173,-121.65,Wildfire,PANTHER,-150,1367366400000,7229
11304,CA3459511843720130530,Initial,80410362013149,80410362013200,-970,100,305,550,34.668,-118.457,Wildfire,POWERHOUSE,-150,1369872000000,32329
11402,ID4520011474120130708,Extended,50410292011192,70410292014200,-970,91,323,590,45.168,-114.743,Wildfire,PAPOOSE,-150,1373241600000,10052
11403,CO3769910713620130605,Extended,50340342010172,80340342014200,-970,100,332,600,37.686,-107.144,Wildfire,PAPOOSE,-150,1370390400000,46991
11484,MO3663609373520130315,Initial,50260352011103,70250352013100,-970,10,270,9999,36.637,-93.751,Prescribed Fire,ROCK CREEK RX,-150,1363305600000,1888
11541,AK6015015550020130619,Extended,50720182010262,70720182014200,-970,50,313,600,60.149,-155.492,Wildfire,NIKUBUMA LAKE,-150,1371600000000,9084
11553,OR4293711764020130701,Initial,80420302013156,80420302013200,-970,19,9999,9999,42.913,-117.642,Wildfire,PASCAL,-150,1372636800000,3013
11566,UT4034111267020130810,Extended,50380322011203,70380322014200,-970,57,251,479,40.415,-112.643,Wildfire,PATCH SPRINGS,-150,1376092800000,29562
11586,AZ3589811315620130801,Extended,80380352013176,80380352014200,-970,50,151,300,35.912,-113.175,Wildfire,PROSPECT,-150,1375315200000,1254
11588,AK6680915094620130620,Extended,70720132011241,80730132014200,-970,100,332,600,66.816,-150.946,Wildfire,PROSPECT CREEK,-150,1371686400000,61848
11599,PR1813806532520130326,Initial,70040472012104,70040472013100,-970,144,9999,9999,18.144,-65.35,Wildfire,PUERTO NEGRO,-150,1364256000000,631
11639,CO3845410535020130611,Extended,50330332011200,80330332014200,-970,50,300,9999,38.46,-105.313,Wildfire,ROYAL GORGE,-150,1370908800000,3290
11683,IN3893208540120130401,Initial (SS),NULL,80210332013100,0,320,-9999,-9999,38.92,-85.391,Prescribed Fire,NON-WUI HAZARD FUELS PRESCRIBED FIRE,0,1364774400000,934
11689,ND4588110254820130403,Initial,50330282008112,80330282013100,-970,-40,9999,9999,45.826,-102.479,Wildfire,PAUTRE,-150,1364947200000,11733
11733,MS3442708934420130314,Initial (SS),NULL,80220362013100,0,610,-9999,-9999,34.431,-89.35,Prescribed Fire,PUSKUS LAKE,0,1363219200000,2271
11766,CA4130012313520130731,Extended,80460312013184,80460312014200,-970,54,296,566,41.314,-123.203,Wildfire,SALMON RIVER COMPLEX,-150,1375228800000,14959
11929,NV4003011445220130701,Extended,50400322011201,80400322014200,-970,70,218,410,40.019,-114.48,Wildfire,NORTH CREEK,-150,1372636800000,1274
11963,MT4819710878620131119,Initial (SS),NULL,80380262014100,0,-3,-9999,-9999,48.203,-108.791,Wildfire,PEOPLES CREEK,0,1384819200000,1623
11981,AZ3473611239020130430,Initial,80370362013105,80370362013100,-970,50,210,9999,34.749,-112.372,Wildfire,PERKINSVILLE,-150,1367280000000,1555
12015,ID4460411708620130829,Initial,80420292013236,80420292013300,-970,77,337,657,44.652,-117.055,Wildfire,RAFT,-150,1377734400000,20722
12091,AK6718714209320130629,Extended,50670132011230,80670132014200,-970,80,276,510,67.206,-141.962,Wildfire,NORTH PORCUPINE,-150,1372464000000,20598
12092,OR4285712358520130726,Extended,80460302013184,80460302014200,-970,70,320,599,42.812,-123.595,Wildfire,NORTH RABBIT,-150,1374796800000,25085
12325,UT4078411140920130813,Extended,50380322011203,80380322014200,-970,131,323,563,40.772,-111.428,Wildfire,ROCKPORT,-150,1376352000000,2018
12346,OK3389109699920130303,Initial,50270372011062,70270372013100,-970,100,326,9999,33.924,-96.951,Wildfire,ROCKY POINT,-150,1362268800000,3165
12385,AK6000115759420130728,Initial,50730182010237,80730182013300,-970,100,332,600,59.998,-157.599,Wildfire,NUYAKUK RIVER,-150,1374969600000,2496
12409,ID4376811602520130715,Extended,50410302011192,70410302014200,-970,82,296,536,43.759,-115.963,Wildfire,PINE CREEK,-150,1373846400000,3364
12422,AZ3343510971420130513,Initial,50350372011182,80350372013200,-970,50,330,9999,33.339,-109.717,Prescribed Fire,PINE SALT,-150,1368403200000,13696
12463,AK6608315081920130620,Extended (SS),NULL,80730142014200,0,400,200,-10,66.077,-150.714,Wildfire,RAY RIVER 2,0,1371686400000,21032
12602,NV4140911643520130817,Initial,50410312011240,70410312013200,-970,100,229,410,41.396,-116.404,Wildfire,RED COW,-150,1376697600000,16908
12714,UT4151911370320130720,Initial,80390312013199,80390312013200,-970,43,307,9999,41.533,-113.738,Wildfire,PLAYGROUND,-150,1374278400000,3110
12740,NV3992012001620130701,Initial,80430322013179,80430322013200,-970,38,306,9999,39.926,-119.968,Wildfire,RED ROCK,-150,1372636800000,5487
12750,MT4780411300920130718,Extended,80400272013190,80400272014200,-970,56,256,490,47.816,-112.96,Wildfire,RED SHALE,-150,1374105600000,13712
12806,AK6375615978220130620,Initial,50770152009182,80770152013200,-970,15,287,575,63.766,-159.798,Wildfire,OLD WOMEN RIVER,-150,1371686400000,11045
12821,OR4351211831720130824,Initial,80430302013227,80430302013200,-970,15,9999,9999,43.53,-118.285,Wildfire,OLYMPUS,-150,1377302400000,3348
12945,FL2818808080420130316,Initial (SS),NULL,80160402013100,0,150,-9999,-9999,28.183,-80.794,Wildfire,OPENING DAY FIRE,0,1363392000000,702
12974,ID4210911463320130701,Initial,80400312013174,80400312013200,-970,80,243,450,42.095,-114.63,Wildfire,POINTE,-150,1372636800000,3059
13125,ID4329411554820130809,Initial,50410302010237,70410302013200,-970,83,337,9999,43.385,-115.651,Wildfire,PONY COMPLEX,-150,1376006400000,148188
13184,ID4423611540120130716,Extended,50410292011208,80410292014200,-970,37,215,427,44.229,-115.395,Wildfire,RIDGE,-150,1373932800000,5034
13190,AK6372515966920130620,Extended,50770152010265,80770152014300,-970,50,232,450,63.717,-159.654,Wildfire,RIDGE TOP,-150,1371686400000,7420
13211,ID4540311621420130712,Initial,80420282013188,80420282013200,-970,78,338,626,45.416,-116.21,Wildfire,ROUGH CREEK,-150,1373587200000,2730
13256,OR4361211717120130701,Initial,80420302013156,80420302013200,-970,53,291,9999,43.632,-117.183,Wildfire,OWYHEE,-150,1372636800000,48001
14935,KS3918809673920131110,Initial (SS),NULL,80280332013300,0,75,-265,-9999,39.185,-96.748,Unknown,UNNAMED,0,1384041600000,7465
16271,NC3502007703020130329,Initial,70140362013064,70140362013100,-970,50,9999,9999,34.981,-77.049,Prescribed Fire,UNNAMED,-150,1364515200000,684
16272,TX3128209392520130324,Initial,50250382011096,70250382013100,-970,-30,220,9999,31.278,-93.923,Prescribed Fire,UNNAMED,-150,1364083200000,1490
16273,TX3138309512520130227,Initial (SS),NULL,70250382013100,0,450,-9999,-9999,31.371,-95.112,Prescribed Fire,UNNAMED,0,1361923200000,1810
16274,TX3127409526520130422,Initial (SS),NULL,80250382013100,0,550,200,-9999,31.27,-95.263,Prescribed Fire,UNNAMED,0,1366588800000,1619
16275,TX3110409429920130315,Initial,50250382011096,70250382013100,-970,10,9999,9999,31.106,-94.298,Prescribed Fire,UNNAMED,-150,1363305600000,2043
16276,GA3340808361520130314,Initial,50180372011095,80190372013100,-970,-20,9999,9999,33.407,-83.627,Prescribed Fire,UNNAMED,-150,1363219200000,812
16277,TX3051009576020130422,Initial,80250392013101,80260392013100,-970,30,350,9999,30.513,-95.771,Prescribed Fire,UNNAMED,-150,1366588800000,3489
16278,GA3321308371220130410,Initial,50180372011127,80180372013100,-970,92,9999,9999,33.204,-83.706,Prescribed Fire,UNNAMED,-150,1365552000000,2077
16279,SC3375008215020130310,Initial (SS),NULL,70180372013100,0,494,-9999,-9999,33.762,-82.156,Prescribed Fire,UNNAMED,0,1362873600000,905
16419,SC3385008212020130409,Initial,50170372011120,70170372013100,-970,48,9999,9999,33.855,-82.128,Prescribed Fire,UNNAMED,-150,1365465600000,2654
16420,GA3324308350920130205,Initial (SS),NULL,70180372013100,0,333,-9999,-9999,33.239,-83.521,Prescribed Fire,UNNAMED,0,1360022400000,1027
16421,GA3318008373520130215,Initial,50180372011047,70190372013100,-970,142,9999,9999,33.187,-83.734,Prescribed Fire,UNNAMED,-150,1360886400000,1949
16422,GA3314508354720130315,Initial (SS),NULL,70180372013100,0,249,-9999,-9999,33.152,-83.533,Prescribed Fire,UNNAMED,0,1363305600000,1116
16423,TX3055009561020130408,Initial,50260392011119,80260392013100,-970,75,400,9999,30.537,-95.584,Prescribed Fire,UNNAMED,-150,1365379200000,5033
16424,TX3123009392920130320,Initial (SS),NULL,70250382013100,0,600,-9999,-9999,31.228,-93.922,Prescribed Fire,UNNAMED,0,1363737600000,4754
16425,TX3106809424120130510,Initial,70250382013109,80250382013100,-970,50,300,9999,31.069,-94.238,Prescribed Fire,UNNAMED,-150,1368144000000,3429
16426,TX3051009576020130228,Initial (SS),NULL,80250392013100,0,525,300,-9999,30.508,-95.793,Prescribed Fire,UNNAMED,0,1362009600000,1315
16427,SC3315007988320130424,Initial,50160372011129,80160372013100,-970,39,9999,9999,33.165,-79.891,Prescribed Fire,UNNAMED,-150,1366761600000,1135
16428,SC3318307981620130205,Initial (SS),NULL,70160372013000,0,500,-9999,-9999,33.182,-79.859,Prescribed Fire,UNNAMED,0,1360022400000,1178
16429,SC3315007981620130202,Initial (SS),NULL,70160372013000,0,504,-9999,-9999,33.162,-79.822,Prescribed Fire,UNNAMED,0,1359763200000,967
16430,TX3055009572020130315,Initial,70260392012098,80250392013100,-970,80,400,9999,30.56,-95.713,Prescribed Fire,UNNAMED,-150,1363305600000,4218
16431,TX3134909422820130315,Initial,50250382011096,70250382013100,-970,-10,9999,9999,31.352,-94.229,Prescribed Fire,UNNAMED,-150,1363305600000,1183
16432,TX3107109416720130510,Initial,50250382011096,80250382013100,-970,10,350,9999,31.066,-94.172,Prescribed Fire,UNNAMED,-150,1368144000000,3191
16433,TX3113809435620130510,Initial,50250382011096,80250382013100,-970,30,300,9999,31.136,-94.356,Prescribed Fire,UNNAMED,-150,1368144000000,2851
16434,TX3117109434420130421,Initial,50250382011096,80250382013100,-970,30,350,9999,31.177,-94.336,Prescribed Fire,UNNAMED,-150,1366502400000,1859
16435,TX3123809423020130415,Initial,50250382011096,80250382013100,-970,-20,9999,9999,31.241,-94.235,Prescribed Fire,UNNAMED,-150,1365984000000,3919
16436,FL3024108457020130426,Initial (SS),NULL,70190392013100,0,498,180,-9999,30.244,-84.57,Prescribed Fire,UNNAMED,0,1366934400000,2665
16437,FL3033708435220130514,Initial,80180392013116,80180392013100,-970,65,9999,9999,30.337,-84.353,Prescribed Fire,UNNAMED,-150,1368489600000,1162
16438,FL3041308449120131024,Initial,80190392013283,80180392013300,-970,162,302,9999,30.414,-84.492,Prescribed Fire,UNNAMED,-150,1382572800000,3021
16439,FL3038408451620131025,Initial,80190392013283,80180392013300,-970,162,302,9999,30.386,-84.509,Prescribed Fire,UNNAMED,-150,1382659200000,1838
16440,FL3027208471420130912,Initial,50180392011255,80180392013300,-970,15,276,9999,30.266,-84.701,Prescribed Fire,UNNAMED,-150,1378944000000,865
16441,FL3037508461220130913,Initial,50180392011255,80180392013300,-970,1,9999,9999,30.373,-84.607,Prescribed Fire,UNNAMED,-150,1379030400000,1840
16442,FL3031708451620131106,Initial,80180392013308,80190392013300,-970,-23,297,9999,30.34,-84.513,Prescribed Fire,UNNAMED,-150,1383696000000,1807
16443,LA3137809312320130123,Initial (SS),NULL,70240382013100,0,400,-9999,-9999,31.381,-93.117,Prescribed Fire,UNNAMED,0,1358899200000,933
16444,LA3212909287120130123,Initial (SS),NULL,70240382013100,0,480,-9999,-9999,32.139,-92.876,Prescribed Fire,UNNAMED,0,1358899200000,1312
16445,LA3104009313020130125,Initial (SS),NULL,70240382013100,0,400,-9999,-9999,31.076,-93.123,Prescribed Fire,UNNAMED,0,1359072000000,5044
16446,FL3031108441720130322,Initial,50180392011079,70180392013100,-970,50,309,9999,30.307,-84.424,Prescribed Fire,UNNAMED,-150,1363910400000,2100
16447,LA3143809320520130126,Initial (SS),NULL,70240382013100,0,500,-9999,-9999,31.456,-93.226,Prescribed Fire,UNNAMED,0,1359158400000,1426
16448,FL3019708471620130328,Initial,50180392011079,70180392013100,-970,48,294,9999,30.196,-84.716,Prescribed Fire,UNNAMED,-150,1364428800000,1576
16449,FL3031808437320130328,Initial,50180392011079,70180392013100,-970,36,274,9999,30.322,-84.38,Prescribed Fire,UNNAMED,-150,1364428800000,1974
16450,FL3015808469020130329,Initial,50180392011079,70180392013100,-970,61,309,9999,30.159,-84.695,Prescribed Fire,UNNAMED,-150,1364515200000,1847
16451,FL3024508461420130402,Initial,50190392010099,70190392013100,-970,46,294,9999,30.24,-84.616,Prescribed Fire,UNNAMED,-150,1364860800000,2346
16452,FL3018808460320130408,Initial,50180392010092,80180392013100,-970,21,295,9999,30.17,-84.561,Prescribed Fire,UNNAMED,-150,1365379200000,24574
16453,FL3019308489020130424,Initial,50190392010099,80180392013100,-970,60,313,9999,30.198,-84.898,Prescribed Fire,UNNAMED,-150,1366761600000,1561
16454,LA3153909308420130127,Initial (SS),NULL,70240382013100,0,450,200,-9999,31.54,-93.086,Prescribed Fire,UNNAMED,0,1359244800000,986
16455,LA3190609287520130128,Initial (SS),NULL,70240382013100,0,480,-9999,-9999,31.905,-92.866,Prescribed Fire,UNNAMED,0,1359331200000,1056
16456,FL3009808493420130320,Initial,50190392010099,70190392013100,-970,62,318,9999,30.109,-84.924,Prescribed Fire,UNNAMED,-150,1363737600000,3592
16457,FL3013308495420130401,Initial,50190392010099,70190392013100,-970,76,318,9999,30.127,-84.955,Prescribed Fire,UNNAMED,-150,1364774400000,4121
16458,FL3010508503620130416,Initial (SS),NULL,80190392013100,0,496,-9999,-9999,30.09,-85.029,Prescribed Fire,UNNAMED,0,1366070400000,3941
16459,FL3007208494520130419,Initial,50190392010099,80180392013100,-970,54,300,9999,30.055,-84.92,Prescribed Fire,UNNAMED,-150,1366329600000,8012
16460,FL3030908481320130507,Initial,80180392013116,80180392013100,-970,10,285,9999,30.308,-84.812,Prescribed Fire,UNNAMED,-150,1367884800000,3502
16461,FL2994708499220130911,Initial,50190392011278,70190392013300,-970,1,239,9999,29.946,-84.993,Prescribed Fire,UNNAMED,-150,1378857600000,1999
16462,LA3199409280920130201,Initial (SS),NULL,70240382013100,0,520,300,-9999,31.987,-92.807,Prescribed Fire,UNNAMED,0,1359676800000,1254
16602,LA3118009255020130201,Initial (SS),NULL,70240382013100,0,450,300,-9999,31.154,-92.539,Prescribed Fire,UNNAMED,0,1359676800000,2173
16603,FL3004208507420130917,Initial,50190392011278,80190392013300,-970,39,300,9999,30.024,-85.045,Prescribed Fire,UNNAMED,-150,1379376000000,2718
16604,LA3188309272720130203,Initial (SS),NULL,70240382013100,0,450,250,-9999,31.893,-92.773,Prescribed Fire,UNNAMED,0,1359849600000,1770
16605,FL3019208497020131028,Initial,80190392013299,80190392013300,-970,54,303,9999,30.183,-84.962,Prescribed Fire,UNNAMED,-150,1382918400000,2815
16606,LA3158109250320130204,Initial (SS),NULL,70240382013100,0,400,200,-9999,31.596,-92.479,Prescribed Fire,UNNAMED,0,1359936000000,2677
16608,LA3173409253220130204,Initial (SS),NULL,70240382013100,0,430,200,-9999,31.719,-92.538,Prescribed Fire,UNNAMED,0,1359936000000,2523
16609,FL3015008489920131205,Initial,50190392011022,80190392014000,-970,40,295,9999,30.153,-84.899,Prescribed Fire,UNNAMED,-150,1386201600000,1866
16610,FL3013408507420130919,Initial,50190392011278,80190392013300,-970,44,298,9999,30.13,-85.078,Prescribed Fire,UNNAMED,-150,1379548800000,2660
16611,FL3019608493520130920,Initial,50190392011278,80190392013300,-970,3,259,9999,30.198,-84.945,Prescribed Fire,UNNAMED,-150,1379635200000,1407
16612,TX3117709362820130207,Initial (SS),NULL,70240382013100,0,460,200,-9999,31.172,-93.632,Prescribed Fire,UNNAMED,0,1360195200000,3220
16613,LA3122009268020130215,Initial,50240382010102,80240382013100,-970,30,9999,9999,31.227,-92.69,Prescribed Fire,UNNAMED,-150,1360886400000,1092
16614,LA3144909313620130216,Initial (SS),NULL,70240382013100,0,500,-9999,-9999,31.479,-93.17,Prescribed Fire,UNNAMED,0,1360972800000,1533
16615,LA3113009263020130217,Initial (SS),NULL,70240382013100,0,500,-9999,-9999,31.16,-92.655,Prescribed Fire,UNNAMED,0,1361059200000,632
16616,LA3106009257020130217,Initial (SS),NULL,70240382013100,0,400,-9999,-9999,31.056,-92.582,Prescribed Fire,UNNAMED,0,1361059200000,800
16617,LA3155209246920130219,Initial (SS),NULL,70240382013100,0,500,-9999,-9999,31.547,-92.483,Prescribed Fire,UNNAMED,0,1361232000000,2161
16618,LA3188209283620130220,Initial (SS),NULL,70240382013100,0,480,-9999,-9999,31.876,-92.832,Prescribed Fire,UNNAMED,0,1361318400000,2925
16619,LA3118009264020130227,Initial (SS),NULL,70240382013100,0,400,-9999,-9999,31.226,-92.608,Prescribed Fire,UNNAMED,0,1361923200000,4777
16620,LA3149409299020130228,Initial (SS),NULL,70240382013100,0,450,-9999,-9999,31.455,-93.072,Prescribed Fire,UNNAMED,0,1362009600000,1361
16621,TX3117909372720130301,Initial (SS),NULL,70240382013100,0,470,200,-9999,31.181,-93.717,Prescribed Fire,UNNAMED,0,1362096000000,1596
16622,LA3125009269020130302,Initial (SS),NULL,70240382013100,0,450,-9999,-9999,31.256,-92.693,Prescribed Fire,UNNAMED,0,1362182400000,882
16623,MO3690409204620130314,Initial,50250342010077,70240342013100,-970,-10,9999,9999,36.909,-92.059,Prescribed Fire,UNNAMED,-150,1363219200000,1380
16624,LA3178709289420130303,Initial (SS),NULL,70240382013100,0,500,-9999,-9999,31.787,-92.892,Prescribed Fire,UNNAMED,0,1362268800000,1202
16625,AL3100708680920130320,Initial,50200392011125,80200392013100,-970,45,301,9999,31.021,-86.81,Prescribed Fire,UNNAMED,-150,1363737600000,2131
16626,AL3100608677920130416,Initial,50200392011125,80200392013100,-970,39,293,9999,31.007,-86.777,Prescribed Fire,UNNAMED,-150,1366070400000,719
16627,AL3105608678420130203,Initial,70200392012088,70200382013100,-970,88,314,9999,31.044,-86.779,Prescribed Fire,UNNAMED,-150,1359849600000,5525
16628,AL3103008664820130407,Initial,50200382011093,70200382013100,-970,34,282,9999,31.034,-86.655,Prescribed Fire,UNNAMED,-150,1365292800000,1372
16629,AL3108808665520130121,Initial,50200382011077,70200382013100,-970,36,288,9999,31.085,-86.649,Prescribed Fire,UNNAMED,-150,1358726400000,1436
16630,AL3111008653720130407,Initial (SS),NULL,70200382013100,0,498,-9999,-9999,31.113,-86.53,Prescribed Fire,UNNAMED,0,1365292800000,626
16631,AL3113808655120130314,Initial,50200382011077,70200382013100,-970,49,299,9999,31.132,-86.575,Prescribed Fire,UNNAMED,-150,1363219200000,9046
16632,AL3111208671220130121,Initial (SS),NULL,70200382013100,0,498,-9999,-9999,31.116,-86.725,Prescribed Fire,UNNAMED,0,1358726400000,1490
16633,AL3109308667720130122,Initial,50200382011077,70200382013100,-970,45,298,9999,31.087,-86.674,Prescribed Fire,UNNAMED,-150,1358812800000,1803
16634,LA3182609281520130303,Initial (SS),NULL,70240382013100,0,500,-9999,-9999,31.821,-92.817,Prescribed Fire,UNNAMED,0,1362268800000,1831
16635,AR3615509444820130421,Initial,50260352011119,70260352013100,-970,5,350,9999,36.156,-94.445,Prescribed Fire,UNNAMED,-150,1366502400000,559
16636,FL3028308492220130307,Initial (SS),NULL,70190392013100,0,503,-9999,-9999,30.278,-84.935,Prescribed Fire,UNNAMED,0,1362614400000,3342
16637,FL3021708500920130315,Initial,50190392010099,70190392013100,-970,20,290,9999,30.217,-85.005,Prescribed Fire,UNNAMED,-150,1363305600000,1515
16638,IL3751508845320130403,Initial (SS),NULL,80220342013100,0,360,-9999,-9999,37.516,-88.458,Prescribed Fire,UNNAMED,0,1364947200000,1203
16639,LA3211109288220130306,Initial (SS),NULL,70240382013100,0,480,200,-9999,32.107,-92.876,Prescribed Fire,UNNAMED,0,1362528000000,1277
16640,IL3761908858120130405,Initial (SS),NULL,80220342013100,0,360,-9999,-9999,37.551,-88.652,Prescribed Fire,UNNAMED,0,1365120000000,651
16641,KY3696308813020130407,Initial (SS),NULL,80220342013100,0,475,250,-9999,36.968,-88.145,Prescribed Fire,UNNAMED,0,1365292800000,1167
16642,LA3144209296620130307,Initial (SS),NULL,70240382013100,0,400,300,100,31.447,-92.973,Prescribed Fire,UNNAMED,0,1362614400000,1612
16643,LA3161209254420130310,Initial (SS),NULL,70240382013100,0,450,-9999,-9999,31.615,-92.545,Prescribed Fire,UNNAMED,0,1362873600000,2381
16644,TX3131209371220130315,Initial (SS),NULL,70240382013100,0,420,-9999,-9999,31.311,-93.718,Prescribed Fire,UNNAMED,0,1363305600000,2013
16645,LA3174009246520130330,Initial (SS),NULL,80240382013100,0,550,300,-9999,31.73,-92.451,Prescribed Fire,UNNAMED,0,1364601600000,830
16646,TX3047009515020130216,Initial (SS),NULL,70250392013100,0,400,-9999,-9999,30.457,-95.111,Prescribed Fire,UNNAMED,0,1360972800000,1559
16785,LA3109009257020130421,Initial (SS),NULL,80240382013100,0,580,-9999,-9999,31.095,-92.561,Prescribed Fire,UNNAMED,0,1366502400000,1391
16786,MO3784209108220130315,Initial,70240342012084,80240342013100,-970,75,9999,9999,37.839,-91.082,Prescribed Fire,UNNAMED,-150,1363305600000,820
16787,MO3781709101620130405,Initial,70240342012084,80240342013100,-970,75,9999,9999,37.817,-91.024,Prescribed Fire,UNNAMED,-150,1365120000000,1196
16788,LA3122009268020130423,Initial (SS),NULL,80240382013100,0,650,-9999,-9999,31.226,-92.687,Prescribed Fire,UNNAMED,0,1366675200000,1702
16789,LA3143809320520130426,Initial,80240382013110,70240382013100,-970,10,9999,9999,31.448,-93.211,Prescribed Fire,UNNAMED,-150,1366934400000,1309
16790,LA3144909313620130426,Initial,80240382013110,70240382013100,-970,10,9999,9999,31.462,-93.164,Prescribed Fire,UNNAMED,-150,1366934400000,1247
16791,LA3209709286220130430,Initial,80240382013110,70240382013100,-970,-10,9999,9999,32.1,-92.851,Prescribed Fire,UNNAMED,-150,1367280000000,843
16792,LA3137809312320130506,Initial,80240382013110,70240382013100,-970,10,230,9999,31.377,-93.145,Prescribed Fire,UNNAMED,-150,1367798400000,1231
16793,LA3144909313620130506,Initial,80240382013110,70240382013100,-970,10,9999,9999,31.44,-93.122,Prescribed Fire,UNNAMED,-150,1367798400000,1788
16794,LA3178609261920130508,Initial,80240382013110,80240382013100,-970,-10,150,9999,31.816,-92.559,Prescribed Fire,UNNAMED,-150,1367971200000,1469
16795,LA3109009257020130509,Initial,80240382013110,70240382013100,-970,10,250,9999,31.087,-92.572,Prescribed Fire,UNNAMED,-150,1368057600000,951
16796,AR3601409222520130421,Initial,70240352012116,70240352013100,-970,65,330,620,36.014,-92.227,Prescribed Fire,UNNAMED,-150,1366502400000,1883
16797,LA3175109252520130509,Initial,80240382013110,80240382013100,-970,-30,150,9999,31.748,-92.522,Prescribed Fire,UNNAMED,-150,1368057600000,1161
16798,LA3112009264020130510,Initial,80240382013110,70240382013100,-970,20,270,9999,31.14,-92.639,Prescribed Fire,UNNAMED,-150,1368144000000,792
16799,AR3597709221120130422,Initial,70240352012116,70240352013100,-970,65,300,9999,35.973,-92.212,Prescribed Fire,UNNAMED,-150,1366588800000,935
16800,LA3105909295220131211,Initial,80240382013334,80240382013400,-970,50,170,9999,31.083,-93.007,Prescribed Fire,UNNAMED,-150,1386720000000,1154
16801,LA3105109296520131211,Initial,80240382013334,80240382013400,-970,50,180,9999,31.067,-92.958,Prescribed Fire,UNNAMED,-150,1386720000000,3430
16802,LA3104009313020131213,Initial,80240382013334,80240382013400,-970,40,210,9999,31.023,-93.079,Prescribed Fire,UNNAMED,-150,1386892800000,611
16803,LA3105309307520131217,Initial,80240382013350,70240382013400,-970,30,9999,9999,31.052,-93.076,Prescribed Fire,UNNAMED,-150,1387238400000,1244
16804,LA3106509288820131218,Initial,80240382013350,70240382013400,-970,60,9999,9999,31.076,-92.904,Prescribed Fire,UNNAMED,-150,1387324800000,5381
16805,LA3101409295120131219,Initial,80240382013350,70240382013400,-970,70,9999,9999,31.015,-92.949,Prescribed Fire,UNNAMED,-150,1387411200000,996
16806,LA3100709295420130202,Initial (SS),NULL,70240382013100,0,450,-9999,-9999,31.008,-92.922,Prescribed Fire,UNNAMED,0,1359763200000,1186
16807,LA3101009302020130125,Initial (SS),NULL,70240382013100,0,450,-9999,-9999,31.012,-93.002,Prescribed Fire,UNNAMED,0,1359072000000,2167
16808,LA3101009302020130402,Initial (SS),NULL,70240382013100,0,500,-9999,-9999,31.036,-92.991,Prescribed Fire,UNNAMED,0,1364860800000,1009
16809,FL2944208181020130110,Initial (SS),NULL,70160402013000,0,550,-9999,-9999,29.45,-81.8,Prescribed Fire,UNNAMED,0,1357776000000,554
16810,FL2948008182020130227,Initial (SS),NULL,80160402013100,0,330,-9999,-9999,29.465,-81.823,Prescribed Fire,UNNAMED,0,1361923200000,921
16811,FL2941508179620130508,Initial,80160402013087,80160402013100,-970,50,9999,9999,29.421,-81.795,Prescribed Fire,UNNAMED,-150,1367971200000,882
16812,FL2902008159020130508,Initial,80160402013087,80160402013100,-970,30,270,400,29.021,-81.598,Prescribed Fire,UNNAMED,-150,1367971200000,1851
16813,AR3603409234220130314,Initial,50240352011105,80240352013100,-970,70,9999,9999,36.018,-92.329,Prescribed Fire,UNNAMED,-150,1363219200000,743
16814,AR3571209290720130326,Initial,50250352011128,80250352013100,-970,40,9999,9999,35.712,-92.906,Prescribed Fire,UNNAMED,-150,1364256000000,3063
16815,AR3572609292920130312,Initial (SS),NULL,70250352013100,0,225,-9999,-9999,35.718,-92.931,Prescribed Fire,UNNAMED,0,1363046400000,4912
16816,AR3559009331920130327,Initial (SS),NULL,70250352013100,0,425,-9999,-9999,35.588,-93.327,Prescribed Fire,UNNAMED,0,1364342400000,1843
16817,FL3021308450620131029,Extended,80180392013116,70180392014100,-970,-8,243,9999,30.198,-84.492,Prescribed Fire,UNNAMED,-150,1383004800000,6269
16818,FL3017608463520131203,Extended,80180392013116,80190392014100,-970,-15,234,9999,30.183,-84.635,Prescribed Fire,UNNAMED,-150,1386028800000,958
16819,FL3037308458320131218,Extended,80180392013116,80190392014100,-970,-6,9999,9999,30.374,-84.582,Prescribed Fire,UNNAMED,-150,1387324800000,1126
16820,WI4663409125520130524,Initial,50260282011183,70260282013200,-970,84,333,9999,46.638,-91.275,Prescribed Fire,UNNAMED,-150,1369353600000,2240
16821,AR3565309387220130315,Initial (SS),NULL,80250352013100,0,240,-9999,-9999,35.653,-93.869,Prescribed Fire,UNNAMED,0,1363305600000,2545
16822,MN4726009423620130507,Initial (SS),NULL,70280272013100,0,77,-9999,-9999,47.269,-94.232,Prescribed Fire,UNNAMED,0,1367884800000,958
16823,AR3573709373420130314,Initial,50250352010093,80250352013100,-970,-5,9999,9999,35.734,-93.726,Prescribed Fire,UNNAMED,-150,1363219200000,7804
16824,VA3847507913320130427,Initial (SS),NULL,80160332013100,0,320,200,-9999,38.47,-79.177,Prescribed Fire,UNNAMED,0,1367020800000,4687
16825,AR3568609363220130312,Initial,70250352011104,70250352013100,-970,40,290,9999,35.687,-93.633,Prescribed Fire,UNNAMED,-150,1363046400000,2071
16826,FL2942208173320130618,Initial (SS),NULL,70160402013200,0,500,-9999,-9999,29.418,-81.731,Prescribed Fire,UNNAMED,0,1371513600000,704
16827,FL2901008156020130625,Initial (SS),NULL,80160402013200,0,270,-9999,-9999,29.009,-81.556,Prescribed Fire,UNNAMED,0,1372118400000,1038
16828,FL2898008155020130717,Initial (SS),NULL,80160402013200,0,400,-9999,-9999,28.979,-81.561,Prescribed Fire,UNNAMED,0,1374019200000,572
16829,FL2933008173020130726,Initial (SS),NULL,80160402013200,0,500,-9999,-9999,29.332,-81.73,Prescribed Fire,UNNAMED,0,1374796800000,1279
17866,AR3466909345220130217,Extended,50250362011160,80250362013200,-970,40,300,9999,34.664,-93.449,Prescribed Fire,UNNAMED,-150,1361059200000,1696
17867,AR3465909342720130217,Extended,50250362011160,80250362013200,-970,40,275,9999,34.664,-93.43,Prescribed Fire,UNNAMED,-150,1361059200000,564
17868,FL2906008159020131218,Initial (SS),NULL,80160402013400,0,450,100,-9999,29.054,-81.597,Prescribed Fire,UNNAMED,0,1387324800000,949
17869,AR3463709341420130307,Initial,70250362011104,70250362013100,-970,70,9999,9999,34.631,-93.411,Prescribed Fire,UNNAMED,-150,1362614400000,1981
17870,AR3465909444320130502,Initial,50250362010125,80250362013100,-970,65,275,9999,34.658,-94.443,Prescribed Fire,UNNAMED,-150,1367452800000,888
17871,FL2932008179120130612,Initial (SS),NULL,70160402013200,0,400,-9999,-9999,29.323,-81.779,Prescribed Fire,UNNAMED,0,1370995200000,2516
17872,AR3473809428020130424,Initial,70250362012107,80250362013100,-970,65,400,9999,34.735,-94.282,Prescribed Fire,UNNAMED,-150,1366761600000,1063
17873,SC3453008168020130329,Initial,50170362011120,70170362013100,-970,10,9999,9999,34.542,-81.685,Prescribed Fire,UNNAMED,-150,1364515200000,606
17874,SC3453308166620130320,Initial,50170362011120,70170362013100,-970,10,300,9999,34.542,-81.68,Prescribed Fire,UNNAMED,-150,1363737600000,882
17875,SC3451608143320130315,Initial,50170362011120,70170362013100,-970,-20,300,9999,34.523,-81.437,Prescribed Fire,UNNAMED,-150,1363305600000,2274
17876,SC3463008166020130403,Initial,50170362011120,70170362013100,-970,10,300,9999,34.64,-81.68,Prescribed Fire,UNNAMED,-150,1364947200000,1746
17877,SC3438008153020130407,Initial,50170362011120,70170362013100,-970,-30,300,9999,34.388,-81.528,Prescribed Fire,UNNAMED,-150,1365292800000,1897
17878,SC3455008176020130408,Initial,50170362011120,70170362013100,-970,20,302,600,34.553,-81.781,Prescribed Fire,UNNAMED,-150,1365379200000,2237
17879,GA3453908340420130311,Initial (SS),NULL,70180362013100,0,260,-9999,-9999,34.542,-83.416,Prescribed Fire,UNNAMED,0,1362960000000,2757
17880,GA3454808341920130218,Initial (SS),NULL,70180362013100,0,180,-9999,-9999,34.543,-83.429,Prescribed Fire,UNNAMED,0,1361145600000,1452
17881,LA3098009319020130312,Initial (SS),NULL,80240392013100,0,500,-9999,-9999,30.964,-93.166,Prescribed Fire,UNNAMED,0,1363046400000,1407
17882,LA3093509318520131203,Initial,80240392013334,80240392013400,-970,30,240,9999,30.936,-93.193,Prescribed Fire,UNNAMED,-150,1386028800000,511
17883,GA3469608338820130327,Initial (SS),NULL,80180362013100,0,510,-9999,-9999,34.692,-83.384,Prescribed Fire,UNNAMED,0,1364342400000,1753
17884,NC3531508333520130410,Initial (SS),NULL,80180362013100,0,100,-9999,-9999,35.333,-83.367,Prescribed Fire,UNNAMED,0,1365552000000,884
17885,SC3491008307120130422,Initial (SS),NULL,80180362013100,0,580,-9999,-9999,34.911,-83.075,Prescribed Fire,UNNAMED,0,1366588800000,603
17886,VA3812107982620130422,Initial (SS),NULL,70170342013100,0,450,-9999,-9999,38.121,-79.832,Prescribed Fire,UNNAMED,0,1366588800000,1026
17887,NC3535608307420130403,Initial (SS),NULL,80180352013100,0,80,-9999,-9999,35.348,-83.079,Prescribed Fire,UNNAMED,0,1364947200000,617
17888,TN3651708205120130321,Initial (SS),NULL,70180352013100,0,180,-9999,-9999,36.516,-82.05,Prescribed Fire,UNNAMED,0,1363824000000,588
17889,TN3648308201720130408,Initial (SS),NULL,80180352013100,0,350,-9999,-9999,36.489,-82.041,Prescribed Fire,UNNAMED,0,1365379200000,1375
17890,VA3686508246320130423,Initial (SS),NULL,80180342013100,0,180,-9999,-9999,36.877,-82.474,Prescribed Fire,UNNAMED,0,1366675200000,940
17891,KY3712408347320130415,Initial (SS),NULL,70190342013100,0,360,-9999,-9999,37.12,-83.477,Prescribed Fire,UNNAMED,0,1365984000000,1226
17892,KY3678208445620130314,Initial (SS),NULL,70190352013100,0,340,-9999,-9999,36.773,-84.443,Prescribed Fire,UNNAMED,0,1363219200000,3940
17893,AR3548609277020130308,Initial (SS),NULL,80240352013100,0,400,-9999,-9999,35.491,-92.782,Prescribed Fire,UNNAMED,0,1362700800000,1195
17894,AL3436508726720130308,Initial (SS),NULL,80210362013100,0,400,-9999,-9999,34.365,-87.269,Prescribed Fire,UNNAMED,0,1362700800000,1080
17895,AL3431708727120130309,Initial (SS),NULL,80210362013100,0,400,-9999,-9999,34.317,-87.274,Prescribed Fire,UNNAMED,0,1362787200000,987
17896,AL3434908732120130314,Initial (SS),NULL,80210362013100,0,380,-9999,-9999,34.352,-87.319,Prescribed Fire,UNNAMED,0,1363219200000,1845
17897,AL3431708733920130316,Initial (SS),NULL,80210362013100,0,380,-9999,-9999,34.319,-87.337,Prescribed Fire,UNNAMED,0,1363392000000,659
17898,AL3439808750520130320,Initial (SS),NULL,80210362013100,0,405,-9999,-9999,34.4,-87.509,Prescribed Fire,UNNAMED,0,1363737600000,1075
17899,MS3128609101820130301,Initial (SS),NULL,70230382013100,0,499,-9999,-9999,31.288,-91.015,Prescribed Fire,UNNAMED,0,1362096000000,1108
17900,MS3137609086320130305,Initial (SS),NULL,80230382013100,0,593,333,-9999,31.386,-90.866,Prescribed Fire,UNNAMED,0,1362441600000,1276
17901,MS3132009092820130309,Initial (SS),NULL,80230382013100,0,596,336,-9999,31.319,-90.944,Prescribed Fire,UNNAMED,0,1362787200000,4768
17902,MS3144809101320130320,Initial (SS),NULL,70230382013100,0,660,-9999,-9999,31.445,-91.02,Prescribed Fire,UNNAMED,0,1363737600000,1995
17903,MS3143209105120130313,Initial (SS),NULL,80230382013100,0,636,339,-9999,31.435,-91.052,Prescribed Fire,UNNAMED,0,1363132800000,1175
17904,AR3483609400820130316,Extended,50250362011176,80250362013200,-970,50,280,9999,34.832,-94.016,Prescribed Fire,UNNAMED,-150,1363392000000,2274
17905,MS3140409096820130316,Initial,50230382010111,70230382013100,-970,53,9999,9999,31.402,-90.965,Prescribed Fire,UNNAMED,-150,1363392000000,1482
17906,MS3139309102520130317,Initial,50230382010111,80230382013100,-970,117,9999,9999,31.397,-91.023,Prescribed Fire,UNNAMED,-150,1363478400000,836
17907,MS3140509107620130329,Initial,50230382010111,80230382013100,-970,137,367,9999,31.405,-91.083,Prescribed Fire,UNNAMED,-150,1364515200000,601
17908,AR3479509408620130303,Extended,50250362011176,80250362013200,-970,40,280,9999,34.79,-94.111,Prescribed Fire,UNNAMED,-150,1362268800000,5233
17909,KY3680808453320130410,Initial (SS),NULL,70200342013100,0,290,-9999,-9999,36.815,-84.527,Prescribed Fire,UNNAMED,0,1365552000000,1163
17910,AL3294608734420130313,Initial,50210372011084,70210372013100,-970,50,286,550,32.964,-87.329,Prescribed Fire,UNNAMED,-150,1363132800000,1723
18424,AR3482209305720130417,Initial,50250362011160,80250362013100,-970,75,425,9999,34.83,-93.062,Prescribed Fire,UNNAMED,-150,1366156800000,4461
18425,OR4227712129020130507,Initial,50440312011165,80440312013200,-970,49,9999,9999,42.277,-121.301,Prescribed Fire,UNNAMED,-150,1367884800000,1571
18426,AR3484109309820130423,Initial,50250362011160,80250362013100,-970,75,9999,9999,34.837,-93.106,Prescribed Fire,UNNAMED,-150,1366675200000,603
18427,AL3295608733020130301,Initial,50210372011084,70210372013100,-970,50,300,9999,32.965,-87.328,Prescribed Fire,UNNAMED,-150,1362096000000,820
18428,MS3391408892220130217,Initial,50220362011075,70220362013100,-970,50,9999,9999,33.92,-88.907,Prescribed Fire,UNNAMED,-150,1361059200000,1822
18429,MS3468808931720130309,Initial,50220362011075,70220362013100,-970,50,300,9999,34.707,-89.319,Prescribed Fire,UNNAMED,-150,1362787200000,2848
18430,MS3401608894120130317,Initial (SS),NULL,80220362013100,0,680,-9999,-9999,34.015,-88.955,Prescribed Fire,UNNAMED,0,1363478400000,738
18431,MS3392008886220130315,Initial (SS),NULL,70220362013100,0,610,-9999,-9999,33.923,-88.878,Prescribed Fire,UNNAMED,0,1363305600000,1071
18432,AL3372408562220130202,Initial,50200372011045,70200372013100,-970,-50,9999,9999,33.726,-85.616,Prescribed Fire,UNNAMED,-150,1359763200000,1320
18433,AL3340308593520130217,Initial,50200372011045,70200372013100,-970,50,302,580,33.403,-85.92,Prescribed Fire,UNNAMED,-150,1361059200000,2667
18434,AL3382108557320130124,Initial,50200372011045,70200372013100,-970,-10,300,9999,33.814,-85.566,Prescribed Fire,UNNAMED,-150,1358985600000,837
18435,AL3339508597420130220,Initial,50200372011045,70200372013100,-970,50,300,9999,33.396,-85.971,Prescribed Fire,UNNAMED,-150,1361318400000,606
18436,AL3267208705620130303,Initial,50200372011077,70200372013100,-970,50,9999,9999,32.675,-87.056,Prescribed Fire,UNNAMED,-150,1362268800000,1294
18437,AR3504009390820130416,Initial,50250362011128,80250362013100,-970,125,9999,9999,35.041,-93.903,Prescribed Fire,UNNAMED,-150,1366070400000,760
18438,AR3503809381820130328,Initial,50250362011128,80250362013100,-970,110,425,9999,35.023,-93.821,Prescribed Fire,UNNAMED,-150,1364428800000,4719
18439,AL3375708552920130127,Initial,50200372011045,70200372013100,-970,50,302,580,33.743,-85.546,Prescribed Fire,UNNAMED,-150,1359244800000,6320
18440,AL3368008562520130304,Initial,50200372011077,70200372013100,-970,50,300,9999,33.696,-85.615,Prescribed Fire,UNNAMED,-150,1362355200000,2777
18441,AL3381308549820130314,Initial,50200372011045,70200372013100,-970,50,280,9999,33.816,-85.503,Prescribed Fire,UNNAMED,-150,1363219200000,2611
18442,AL3276008703020130422,Initial (SS),NULL,80200372013100,0,600,400,-9999,32.773,-87.001,Prescribed Fire,UNNAMED,0,1366588800000,4279
18443,AL3315608618920130513,Initial (SS),NULL,80200372013100,0,620,-9999,-9999,33.156,-86.189,Prescribed Fire,UNNAMED,0,1368403200000,771
18444,GA3481008417220130407,Initial (SS),NULL,70190362013100,0,370,-9999,-9999,34.812,-84.169,Prescribed Fire,UNNAMED,0,1365292800000,927
18445,GA3489708469420130408,Extended (SS),NULL,80190362014100,0,716,476,296,34.889,-84.692,Prescribed Fire,UNNAMED,0,1365379200000,949
18446,GA3472208414120130409,Initial (SS),NULL,70190362013100,0,490,271,75,34.717,-84.143,Prescribed Fire,UNNAMED,0,1365465600000,1637
18447,NC3510308386820130409,Initial (SS),NULL,70190362013100,0,431,-9999,-9999,35.105,-83.868,Prescribed Fire,UNNAMED,0,1365465600000,1109
18448,GA3476708379720130410,Initial (SS),NULL,70190362013100,0,490,268,92,34.765,-83.792,Prescribed Fire,UNNAMED,0,1365552000000,1998
18449,CO3743010682020130927,Extended,50340342010172,80340342014200,-970,120,342,605,37.445,-106.822,Prescribed Fire,UNNAMED,-150,1380240000000,1327
18450,LA3293009293620130308,Initial (SS),NULL,70240372013100,0,450,-9999,-9999,32.925,-92.935,Prescribed Fire,UNNAMED,0,1362700800000,648
18451,LA3289409294020130302,Initial (SS),NULL,70240372013100,0,440,-9999,-9999,32.896,-92.937,Prescribed Fire,UNNAMED,0,1362182400000,624
18452,AR3495909392720130307,Initial,50250362011128,80250362013100,-970,100,9999,9999,34.97,-93.939,Prescribed Fire,UNNAMED,-150,1362614400000,9385
18453,AR3484409366920130419,Initial (SS),NULL,80250362013100,0,550,-9999,-9999,34.832,-93.67,Prescribed Fire,UNNAMED,0,1366329600000,2612
18454,AR3476909364420130309,Initial (SS),NULL,70250362013100,0,400,-9999,-9999,34.767,-93.645,Prescribed Fire,UNNAMED,0,1362787200000,2131
18455,AR3474709363020130317,Initial (SS),NULL,70250362013100,0,400,-9999,-9999,34.75,-93.632,Prescribed Fire,UNNAMED,0,1363478400000,2526
18456,OK3430909473120130326,Initial,50260362011119,70260362013100,-970,50,300,9999,34.317,-94.711,Prescribed Fire,UNNAMED,-150,1364256000000,2482
18457,AR3476809373520130418,Initial,50250362011160,80250362013100,-970,90,9999,9999,34.759,-93.736,Prescribed Fire,UNNAMED,-150,1366243200000,2746
18458,AR3464809387520130316,Initial (SS),NULL,70250362013100,0,425,-9999,-9999,34.648,-93.871,Prescribed Fire,UNNAMED,0,1363392000000,5759
18459,AR3491209308520130328,Initial,50250362011128,80250362013100,-970,75,350,9999,34.921,-93.063,Prescribed Fire,UNNAMED,-150,1364428800000,8607
18460,AR3489009347620130430,Initial,50250362011160,80250362013100,-970,85,360,9999,34.897,-93.473,Prescribed Fire,UNNAMED,-150,1367280000000,2064
18461,OK3431009459020130314,Initial,50260362011119,70260362013100,-970,50,300,9999,34.325,-94.634,Prescribed Fire,UNNAMED,-150,1363219200000,3520
18462,MS3322808895720130301,Initial,50220372011075,70220372013100,-970,8,9999,9999,33.23,-88.956,Prescribed Fire,UNNAMED,-150,1362096000000,1428
18463,MS3324308892820130303,Initial,50220372011075,70220372013100,-970,8,9999,9999,33.241,-88.926,Prescribed Fire,UNNAMED,-150,1362268800000,754
18464,MS3320608895120130301,Initial,50220372011075,70220372013100,-970,8,9999,9999,33.205,-88.954,Prescribed Fire,UNNAMED,-150,1362096000000,1238
18465,MS3329608912220130303,Initial,50220372011075,70220372013100,-970,12,9999,9999,33.303,-89.122,Prescribed Fire,UNNAMED,-150,1362268800000,2162
18466,MS3325308910220130316,Initial,50220372011075,70220372013100,-970,14,9999,9999,33.242,-89.11,Prescribed Fire,UNNAMED,-150,1363392000000,1198
18467,MS3107808928720130523,Initial,50210392010145,80220382013100,-970,-16,278,9999,31.066,-89.292,Prescribed Fire,UNNAMED,-150,1369267200000,1573
18985,MS3093008929920130523,Initial,50220382011155,80220382013100,-970,20,272,9999,30.935,-89.303,Prescribed Fire,UNNAMED,-150,1369267200000,2428
18986,MS3107108903420130218,Initial,50220382011075,70210382013100,-970,35,9999,9999,31.072,-89.021,Prescribed Fire,UNNAMED,-150,1361145600000,3061
18987,MS3150308880220130220,Initial (SS),NULL,80210382013100,0,650,-9999,-9999,31.477,-88.793,Prescribed Fire,UNNAMED,0,1361318400000,1430
18988,MS3149008895720130228,Initial,50220382011075,70210382013100,-970,23,9999,9999,31.49,-88.964,Prescribed Fire,UNNAMED,-150,1362009600000,2046
18989,MS3134408870920130302,Initial,50210382011084,70210382013100,-970,15,9999,9999,31.352,-88.705,Prescribed Fire,UNNAMED,-150,1362182400000,1776
18990,MS3115708897620130311,Initial,50220382011075,70210382013100,-970,40,9999,9999,31.155,-88.979,Prescribed Fire,UNNAMED,-150,1362960000000,965
18991,MS3117008898320130311,Initial,50220382011075,70210382013100,-970,36,9999,9999,31.169,-88.988,Prescribed Fire,UNNAMED,-150,1362960000000,779
18992,MS3150408883520130422,Initial,80210382013105,70210382013100,-970,-6,206,9999,31.508,-88.845,Prescribed Fire,UNNAMED,-150,1366588800000,636
18993,MS3145808886220130423,Initial,80210382013105,70210382013100,-970,-2,200,9999,31.471,-88.862,Prescribed Fire,UNNAMED,-150,1366675200000,928
18994,MS3152608891320130406,Initial (SS),NULL,80210382013100,0,593,229,-9999,31.535,-88.928,Prescribed Fire,UNNAMED,0,1365206400000,4999
18995,MS3144908888720130416,Initial,80210382013105,70210382013100,-970,-2,200,9999,31.443,-88.883,Prescribed Fire,UNNAMED,-150,1366070400000,806
18996,MS3154308878320130423,Initial,80210382013105,70210382013100,-970,-3,197,9999,31.538,-88.779,Prescribed Fire,UNNAMED,-150,1366675200000,954
18997,MS3134308862720130421,Initial (SS),NULL,70210382013100,0,625,-9999,-9999,31.349,-88.641,Prescribed Fire,UNNAMED,0,1366502400000,2062
18998,MS3134108861420130514,Initial (SS),NULL,70210382013100,0,625,-9999,-9999,31.346,-88.615,Prescribed Fire,UNNAMED,0,1368489600000,1358
18999,MS3145808865220130427,Initial,80210382013105,70210382013100,-970,7,215,9999,31.447,-88.654,Prescribed Fire,UNNAMED,-150,1367020800000,1871
19000,MS3106308891620130523,Initial (SS),NULL,70210382013100,0,593,209,57,31.067,-88.916,Prescribed Fire,UNNAMED,0,1369267200000,1296
19001,MS3067308893820130523,Initial (SS),NULL,70210392013100,0,606,208,8,30.673,-88.938,Prescribed Fire,UNNAMED,0,1369267200000,1426
19002,MS3072208925320130523,Initial (SS),NULL,70210392013100,0,611,211,9,30.72,-89.257,Prescribed Fire,UNNAMED,0,1369267200000,2382
19003,MS3065708884520130523,Initial (SS),NULL,70210392013100,0,593,195,-11,30.686,-88.859,Prescribed Fire,UNNAMED,0,1369267200000,1458
19004,MS3071208884720130205,Initial (SS),NULL,70210392013100,0,568,204,-9999,30.703,-88.851,Prescribed Fire,UNNAMED,0,1360022400000,2182
19005,MS3068008887320130205,Initial,50210392011084,70210392013100,-970,45,253,491,30.685,-88.877,Prescribed Fire,UNNAMED,-150,1360022400000,1461
19006,MS3071808890420130311,Initial,50210392011084,70210392013100,-970,25,234,471,30.711,-88.901,Prescribed Fire,UNNAMED,-150,1362960000000,1787
19007,MS3067108889720130311,Initial,50210392011084,70210392013100,-970,44,252,491,30.67,-88.895,Prescribed Fire,UNNAMED,-150,1362960000000,1522
19008,MS3066608890620130311,Initial,50210392010129,70210392013100,-970,35,239,473,30.666,-88.909,Prescribed Fire,UNNAMED,-150,1362960000000,1360
19009,MS3101908893420130311,Initial,50210392011084,70210392013100,-970,44,226,9999,31.018,-88.906,Prescribed Fire,UNNAMED,-150,1362960000000,10170
19010,MS3093208887420130311,Initial,50210392011084,70210392013100,-970,49,239,9999,30.939,-88.921,Prescribed Fire,UNNAMED,-150,1362960000000,3033
19011,MS3094008913120130319,Initial,50220382011075,70220382013100,-970,21,245,493,30.957,-89.138,Prescribed Fire,UNNAMED,-150,1363651200000,2271
19012,MS3085908900520130311,Initial,50220392011075,70220392013100,-970,36,247,486,30.864,-89.011,Prescribed Fire,UNNAMED,-150,1362960000000,947
19013,MS3067408909220130215,Initial (SS),NULL,70210392013100,0,504,174,-9999,30.678,-89.103,Prescribed Fire,UNNAMED,0,1360886400000,1191
19014,MS3061708893620130215,Initial,50210392011084,70210392013100,-970,29,229,9999,30.614,-88.939,Prescribed Fire,UNNAMED,-150,1360886400000,1511
19015,MS3058108895820130218,Initial,50210392011084,70210392013100,-970,29,232,463,30.576,-88.96,Prescribed Fire,UNNAMED,-150,1361145600000,2642
19016,MS3469908927720130430,Initial (SS),NULL,80220362013100,0,660,-9999,-9999,34.699,-89.278,Prescribed Fire,UNNAMED,0,1367280000000,930
19165,AK6098515498920130728,Extended,50720172010262,70720172014200,-970,50,313,600,60.984,-154.961,Wildfire,WHITEFISH LAKE,-150,1374969600000,4414
19179,NM3635110502720130613,Extended,50330352011168,80330352014200,-970,50,302,580,36.34,-105.024,Wildfire,WHITES PEAK,-150,1371081600000,1216
19248,NV4118111620820130716,Initial,80410312013181,80410312013200,-970,100,272,490,41.175,-116.197,Wildfire,WIELAND,-150,1373932800000,3096
19303,CO3975310887720130619,Extended,50360322011157,70360322014200,-970,24,174,360,39.768,-108.861,Wildfire,WILD ROSE,-150,1371600000000,1153
19333,UT4003811267220130629,Extended,80380322013176,80380322014200,-970,40,195,375,39.983,-112.696,Wildfire,WILDFLOWER,-150,1372464000000,1708
19345,OR4473511854320130812,Extended,80430292013179,80430292014200,-970,49,285,549,44.731,-118.529,Wildfire,VINEGAR,-150,1376265600000,1448
19361,OK3463909563620130218,Initial (SS),NULL,70260362013100,0,160,-9999,-9999,34.667,-95.637,Wildfire,VIVIAN CEMETERY,0,1361145600000,3171
19420,FL2810908116820130326,Initial,50160402011081,80160402013100,-970,100,500,9999,28.101,-81.156,Wildfire,WAGON WHEEL FIRE,-150,1364256000000,875
19462,NV3907111617420130629,Extended,80400332013158,80400332014100,-970,50,168,330,39.072,-116.222,Wildfire,WILLOW CREEK,-150,1372464000000,4051
19525,KY3751908392720130403,Initial (SS),NULL,70190342013100,0,450,100,-9999,37.528,-83.922,Wildfire,WIND CAVE,0,1364947200000,622
19597,MT4538010785920130108,Initial (SS),NULL,70360282013000,0,89,-9999,-9999,45.389,-107.855,Wildfire,WINTER,0,1357603200000,2877
19648,NV4125911609620130820,Initial,80410312013229,70410312013300,-970,50,216,420,41.246,-116.118,Wildfire,WATERPIPE,-150,1376956800000,3210
19699,WV3796508247320130406,Initial (SS),NULL,80180342013100,0,450,100,-9999,37.962,-82.467,Wildfire,WAYNE-S2013-108,0,1365206400000,1097
19748,NC3472807702520130329,Initial (SS),NULL,70140362013100,0,480,-9999,-9999,34.735,-77.02,Wildfire,WOODPECKER FIRE,0,1364515200000,2015
19845,AK6543515413820130713,Initial,70740142011239,80740142013200,-970,-15,235,500,65.439,-154.115,Wildfire,WEST FORK,-150,1373673600000,2506
19848,MT4674711435120130818,Extended,80410272013197,80410272014200,-970,50,272,524,46.746,-114.322,Wildfire,WEST FORK 2,-150,1376784000000,2438
19850,CO3746210694320130605,Extended,50340342010172,80340342014200,-970,120,339,600,37.514,-106.944,Wildfire,WEST FORK COMPLEX,-150,1370390400000,18775
19851,CO3758810686320130605,Extended,50340342010172,80340342014200,-970,100,332,600,37.628,-106.839,Wildfire,WEST FORK COMPLEX - EAST ZONE,-150,1370390400000,34441
19861,ID4238111461920130629,Initial,50400312011217,80400312013200,-970,110,300,9999,42.391,-114.61,Wildfire,WEST HOLLISTER,-150,1372464000000,3073
19875,AZ3422811279120130628,Initial,50370362011228,70370362013200,-970,50,259,500,34.243,-112.776,Wildfire,YARNELL HILL,-150,1372377600000,7947
19911,MT4721411494320130714,Extended,50410272011192,80410272014200,-970,87,311,557,47.23,-114.922,Wildfire,WEST MULLAN,-150,1373760000000,6455
19985,TX2956409435020130730,Initial (SS),NULL,80250402013200,0,450,-9999,-9999,29.578,-94.362,Wildfire,WF CADE MUD BAYOU,0,1375142400000,2129
19999,TX2962509426120131024,Initial (SS),NULL,70250392013300,0,550,-9999,-9999,29.619,-94.283,Wildfire,WF UNIT 12 KICKOFF,0,1382572800000,4302
20031,OR4292312275720130726,Extended,80460302013184,80460302014200,-970,33,341,661,42.918,-122.763,Wildfire,WHISKEY,-150,1374796800000,16509
20045,CA3454311980320130527,Initial,80420362013140,80420362013200,-970,90,274,500,34.552,-119.774,Wildfire,WHITE,-150,1369612800000,2033
20072,NV3886411540020130705,Extended,80400332013158,70400332014200,-970,50,205,400,38.878,-115.402,Wildfire,WHITE PINE,-150,1372982400000,1295
21106,TX3050009568020130318,Initial,50260392011119,80260392013100,-970,80,400,9999,30.499,-95.681,Unknown,UNNAMED,-150,1363564800000,1163
21107,TX3056809565520130419,Initial,80250392013101,80260392013100,-970,15,375,9999,30.569,-95.654,Unknown,UNNAMED,-150,1366329600000,2224
21108,TX2911609527220130302,Initial (SS),NULL,70250402013100,0,125,-215,-9999,29.116,-95.269,Unknown,UNNAMED,0,1362182400000,2070
21109,TX2885009559220130302,Initial (SS),NULL,70250402013100,0,125,-195,-9999,28.85,-95.593,Unknown,UNNAMED,0,1362182400000,1800
21110,MO3708209107720130412,Initial (SS),NULL,70240342013100,0,100,-9999,-9999,37.083,-91.078,Unknown,UNNAMED,0,1365724800000,2963
21111,MO3693809064420130327,Initial (SS),NULL,80240342013100,0,220,-9999,-9999,36.937,-90.646,Unknown,UNNAMED,0,1364342400000,3313
21251,MO3694509059920130412,Initial (SS),NULL,80240342013100,0,220,-9999,-9999,36.945,-90.598,Unknown,UNNAMED,0,1365724800000,839
21252,MO3688409120420130412,Initial,70240342010094,80240342013100,-970,-15,250,9999,36.884,-91.203,Unknown,UNNAMED,-150,1365724800000,972
21253,AR3570009286920130411,Initial,50250352011128,80250352013100,-970,35,9999,9999,35.698,-92.871,Unknown,UNNAMED,-150,1365638400000,3499
21254,AZ3157111043720130324,Initial,50350382011102,80350382013100,-970,30,9999,9999,31.571,-110.436,Unknown,UNNAMED,-150,1364083200000,1308
21255,AR3481609413020130505,Initial,50250362010125,80250362013100,-970,50,9999,9999,34.815,-94.132,Unknown,UNNAMED,-150,1367712000000,1998
21256,AR3480909407420130513,Initial,50250362010125,80250362013100,-970,60,350,9999,34.811,-94.068,Unknown,UNNAMED,-150,1368403200000,687
21257,KS3920609689420130424,Initial (SS),NULL,70280332013100,0,75,-9999,-9999,39.205,-96.893,Unknown,UNNAMED,0,1366761600000,1799
21258,KS3923809678520130424,Initial (SS),NULL,70280332013100,0,125,-9999,-9999,39.238,-96.787,Unknown,UNNAMED,0,1366761600000,1728
21259,KS3912509678020130424,Initial (SS),NULL,70280332013100,0,75,-9999,-9999,39.123,-96.778,Unknown,UNNAMED,0,1366761600000,1159
21260,KS3965909654820130424,Initial (SS),NULL,70280332013100,0,100,-9999,-9999,39.657,-96.548,Unknown,UNNAMED,0,1366761600000,1397
21261,KS3907809657620130307,Initial (SS),NULL,70280332013100,0,75,-9999,-9999,39.079,-96.571,Unknown,UNNAMED,0,1362614400000,2249
21262,KS3910709658620130424,Initial (SS),NULL,70280332013100,0,65,-9999,-9999,39.106,-96.587,Unknown,UNNAMED,0,1366761600000,1406
21263,KS3879309618320130424,Initial (SS),NULL,80270332013100,0,-75,-9999,-9999,38.796,-96.181,Unknown,UNNAMED,0,1366761600000,3778
21264,KS3884009622420130511,Initial,80270332013115,80270332013100,-970,15,9999,9999,38.842,-96.229,Unknown,UNNAMED,-150,1368230400000,3667
21265,KS3786709602220130425,Initial (SS),NULL,80270342013100,0,-25,-9999,-9999,37.867,-96.021,Unknown,UNNAMED,0,1366848000000,1102
21266,KS3786309604920130425,Initial (SS),NULL,80270342013100,0,125,-9999,-9999,37.859,-96.05,Unknown,UNNAMED,0,1366848000000,2226
21267,KS3703109629320130425,Initial (SS),NULL,80270342013100,0,70,-9999,-9999,37.032,-96.29,Unknown,UNNAMED,0,1366848000000,1037
21268,OK3688509640120130425,Initial (SS),NULL,80270342013100,0,-40,-9999,-9999,36.881,-96.404,Unknown,UNNAMED,0,1366848000000,2101
21269,OK3674409637620130425,Initial (SS),NULL,80270352013100,0,-25,-9999,-9999,36.744,-96.378,Unknown,UNNAMED,0,1366848000000,1078
21270,OK3668709604020130425,Initial,70270352013091,80270352013100,-970,40,9999,9999,36.686,-96.04,Unknown,UNNAMED,-150,1366848000000,5326
21271,KS3854809571820130425,Initial (SS),NULL,80270332013100,0,-10,-9999,-9999,38.55,-95.716,Unknown,UNNAMED,0,1366848000000,2171
21272,KS3791409589420130425,Initial (SS),NULL,80270342013100,0,10,-9999,-9999,37.909,-95.894,Unknown,UNNAMED,0,1366848000000,4691
21273,KS3777609505020130425,Initial (SS),NULL,80270342013100,0,125,-9999,-9999,37.776,-95.049,Unknown,UNNAMED,0,1366848000000,1366
21274,OK3683809547720130425,Initial (SS),NULL,80270342013100,0,125,-9999,-9999,36.846,-95.48,Unknown,UNNAMED,0,1366848000000,7538
21275,OK3674709587420130425,Initial (SS),NULL,80270352013100,0,90,-9999,-9999,36.743,-95.872,Unknown,UNNAMED,0,1366848000000,1685
21276,OK3657009606320130425,Initial (SS),NULL,80270352013100,0,75,-9999,-9999,36.569,-96.063,Unknown,UNNAMED,0,1366848000000,2607
21277,KS3747809681320130603,Initial (SS),NULL,80280342013200,0,450,-9999,-9999,37.474,-96.816,Unknown,UNNAMED,0,1370217600000,2970
21278,KS3787409668920130830,Initial (SS),NULL,80280342013300,0,325,-9999,-9999,37.872,-96.69,Unknown,UNNAMED,0,1377820800000,1260
21279,KS3782409695720130603,Initial (SS),NULL,80280342013200,0,350,-9999,-9999,37.825,-96.955,Unknown,UNNAMED,0,1370217600000,2109
21280,KS3910809605420130424,Initial (SS),NULL,80270332013100,0,-25,-9999,-9999,39.108,-96.055,Unknown,UNNAMED,0,1366761600000,3062
21281,KS3773209609720130425,Initial (SS),NULL,80270342013100,0,10,-9999,-9999,37.726,-96.095,Unknown,UNNAMED,0,1366848000000,3247
21282,MO3718009106020130327,Initial (SS),NULL,80240342013100,0,225,-9999,-9999,37.179,-91.06,Unknown,UNNAMED,0,1364342400000,637
21283,MO3729909157020130412,Initial (SS),NULL,70240342013100,0,110,-9999,-9999,37.299,-91.571,Unknown,UNNAMED,0,1365724800000,942
21284,MO3704909120220130327,Initial (SS),NULL,70240342013100,0,115,-9999,-9999,37.05,-91.201,Unknown,UNNAMED,0,1364342400000,835
21285,AR3488709387720130419,Initial,50250362011128,80250362013100,-970,150,9999,9999,34.887,-93.875,Unknown,UNNAMED,-150,1366329600000,2021
21286,MS3240708959720130329,Initial,50220382011075,70220382013100,-970,34,9999,9999,32.41,-89.599,Unknown,UNNAMED,-150,1364515200000,2388
21287,MS3113908899520130218,Initial,50210382010049,70210382013000,-970,2,274,9999,31.13,-88.994,Unknown,UNNAMED,-150,1361145600000,2852
21288,AK6245215694220130612,Extended,70740162012226,80730162014200,-970,160,354,600,62.459,-156.915,Unknown,UNNAMED,-150,1370995200000,135664
21289,MS3115708901620130306,Initial,50220382011075,70210382013100,-970,48,256,9999,31.15,-89.013,Unknown,UNNAMED,-150,1362528000000,1583
21290,MS3149408882420130306,Initial,50220382011075,70210382013100,-970,28,238,9999,31.495,-88.825,Unknown,UNNAMED,-150,1362528000000,758
21291,MS3149708883720130407,Initial,50220382011107,80210382013100,-970,80,272,9999,31.494,-88.838,Unknown,UNNAMED,-150,1365292800000,608
21292,MS3151008882720130415,Initial,50220382011107,80210382013100,-970,90,277,9999,31.513,-88.828,Unknown,UNNAMED,-150,1365984000000,942
21293,MS3134908866820130509,Initial,50210382010145,70210382013100,-970,2,9999,9999,31.351,-88.668,Unknown,UNNAMED,-150,1368057600000,1520
21294,MS3064408886120130202,Initial (SS),NULL,70210392013000,0,591,189,-13,30.646,-88.863,Unknown,UNNAMED,0,1359763200000,7660
21295,MS3093208903220130209,Initial,50210392010049,70210392013000,-970,-25,179,403,30.933,-89.03,Unknown,UNNAMED,-150,1360368000000,792
21296,MS3054908889320130509,Initial (SS),NULL,70210392013100,0,563,233,-9999,30.552,-88.898,Unknown,UNNAMED,0,1368057600000,2204
21564,LA3148409309620130228,Initial (SS),NULL,70240382013100,0,480,280,-9999,31.484,-93.097,Wildfire,UNNAMED,0,1362009600000,1356
21565,LA3149809304220130228,Initial (SS),NULL,70240382013100,0,480,280,-9999,31.486,-93.043,Wildfire,UNNAMED,0,1362009600000,1477
21566,LA3151009301520130228,Initial (SS),NULL,70240382013100,0,420,200,-9999,31.509,-93.008,Wildfire,UNNAMED,0,1362009600000,4440
22562,UT3998311269720130702,Extended,80390322013167,80390322014200,-970,40,153,310,39.983,-112.696,Unknown,UNNAMED,-150,1372723200000,1792
22711,CA3605012127120130823,Initial,80430352013227,80430352013300,-970,83,325,475,36.054,-121.275,Unknown,UNNAMED,-150,1377216000000,4433
